Unnamed: 0,Place Name,Place ID,Latitude,Longitude,Rating,User Ratings Total,Types,Price Level,Vicinity,Location,District
0,Wolfbach,ChIJ68Be562gmkcRamHPMmoGRAg,47.37029219999999,8.5522824,4.6,187,"['restaurant', 'food', 'point_of_interest', 'establishment']",3,"Wolfbachstrasse 35, Zürich",Wolfbachstrasse 35, Zürich
1,Blockhus,ChIJ1d2JDaugmkcRvG2iNCdYZ9I,47.3681663,8.545157099999999,4.5,482,"['restaurant', 'food', 'point_of_interest', 'establishment']",2,"Schifflände 4, Zürich",Schifflände 4, Zürich
2,Sternen Grill + Sternen Grill Restaurant im oberen Stock,ChIJs1urRqugmkcRA1ulmr2Q5wk,47.36732199999999,8.545594,4.4,4139,"['meal_takeaway', 'restaurant', 'food', 'point_of_interest', 'establishment']",2,"Theaterstrasse 22, Zürich",Theaterstrasse 22, Zürich
3,Rosaly's Restaurant & Bar,ChIJy1roQqugmkcRBeCV-hePRf4,47.367419,8.545874,4.5,617,"['bar', 'restaurant', 'food', 'point_of_interest', 'establishment']",2,"Freieckgasse 7, Zürich",Freieckgasse 7, Zürich
4,Pepito,ChIJBSHpClinmkcRZ0vU2H2FGog,47.36593070000001,8.5467687,3.7,25,"['meal_takeaway', 'restaurant', 'food', 'point_of_interest', 'establishment']",0,"Theaterstrasse 9, Zürich",Theaterstrasse 9, Zürich
5,Union Diner Bellevue,ChIJ22DpdmuhmkcRNp3vx2s7akg,47.3670157,8.5462876,4.3,212,"['restaurant', 'food', 'point_of_interest', 'establishment']",0,"St. Urbangasse 4, Zürich",St. Urbangasse 4, Zürich
6,Max&Otto,ChIJcwrUclOnmkcRAbMGnaSv5bs,47.3641825,8.5471399,4.3,166,"['restaurant', 'food', 'point_of_interest', 'establishment']",3,"Dufourstrasse 4, Zürich",Dufourstrasse 4, Zürich
7,tibits Bistro,ChIJGfgyljOnmkcRoOVA1-_tf1I,47.3646921,8.5476147,4.4,451,"['meal_takeaway', 'bar', 'restaurant', 'food', 'point_of_interest', 'store', 'establishment']",2,"Falkenstrasse 12, Zürich",Falkenstrasse 12, Zürich
8,Burgermeister Oberdorf,ChIJ3bEbdKugmkcRW6nMkWm8op8,47.3685171,8.5458839,4.1,981,"['meal_takeaway', 'restaurant', 'food', 'point_of_interest', 'establishment']",2,"Oberdorfstrasse 8, Zürich",Oberdorfstrasse 8, Zürich
9,Tschingg,ChIJG5sTcaugmkcRmKCHqZ3dZN4,47.3682947,8.5460417,4.2,772,"['restaurant', 'food', 'point_of_interest', 'establishment']",1,"Oberdorfstrasse 2, Zürich",Oberdorfstrasse 2, Zürich
10,Zum weissen Kreuz,ChIJy8dMU6qgmkcR8nYi9IYTMzA,47.36925069999999,8.5442539,4.5,193,"['restaurant', 'food', 'point_of_interest', 'establishment']",2,"Rössligasse 3, Zürich",Rössligasse 3, Zürich
11,Bodega Espanola,ChIJPfdXKKqgmkcRYb15HXkViwg,47.3712679,8.544127,4.2,1081,"['liquor_store', 'restaurant', 'food', 'point_of_interest', 'store', 'establishment']",2,"Münstergasse 15, Zürich",Münstergasse 15, Zürich
12,Dialog,ChIJhbZbLKqgmkcRWjrTuenaQ_Q,47.3708614,8.544713999999999,4.2,232,"['restaurant', 'food', 'point_of_interest', 'establishment']",2,"Münstergasse 4, Zürich",Münstergasse 4, Zürich
13,Pumpstation,ChIJd949nVOnmkcROghWyVhkibY,47.3636537,8.5463788,4.1,1714,"['restaurant', 'food', 'point_of_interest', 'establishment']",2,"Utoquai 10, Zürich",Utoquai 10, Zürich
14,Vapiano,ChIJ9-g9ZqugmkcReZ-24XijM5A,47.367774,8.5461457,4.0,2677,"['meal_takeaway', 'restaurant', 'food', 'point_of_interest', 'establishment']",2,"Rämistrasse 8, Zürich",Rämistrasse 8, Zürich
15,Rosengarten,ChIJ_V1-MrKgmkcRZSrFUsvU4CY,47.3697962,8.5563454,4.4,173,"['restaurant', 'food', 'point_of_interest', 'establishment']",2,"Gemeindestrasse 60, Zürich",Gemeindestrasse 60, Zürich
16,La Muña,ChIJVQF0FO2nmkcRpUm9vwoAQuk,47.36274299999999,8.547351599999999,4.4,159,"['restaurant', 'food', 'point_of_interest', 'establishment']",0,"Utoquai 45, Zürich",Utoquai 45, Zürich
17,Bohemia,ChIJ44XXJk2nmkcRqAxAtPi-hb0,47.36480570000001,8.554880299999999,4.2,1740,"['restaurant', 'food', 'point_of_interest', 'establishment']",3,"Klosbachstrasse 2, Zürich",Klosbachstrasse 2, Zürich
18,Nooba Kreuzplatz,ChIJQ4KjL02nmkcR9NB5d1g95Ho,47.365136,8.5545875,4.1,630,"['restaurant', 'food', 'point_of_interest', 'establishment']",2,"Kreuzpl. 5, Zürich",Kreuzpl. 5, Zürich
19,Il Gattopardo,ChIJEXFDrKugmkcRZm-yJY29YhA,47.3692424,8.544426,4.5,77,"['restaurant', 'food', 'point_of_interest', 'establishment']",0,"Rössligasse 7, Zürich",Rössligasse 7, Zürich
20,Kronenhalle,ChIJxye0aaugmkcRti36D04xmFo,47.36762090000001,8.545813899999999,4.6,1548,"['bar', 'museum', 'restaurant', 'food', 'point_of_interest', 'establishment']",0,"Rämistrasse 4, Zürich",Rämistrasse 4, Zürich
21,McDonald’s,ChIJWVobtKygmkcRjf-dHUI1l2c,47.3664546,8.5476469,3.5,1694,"['restaurant', 'food', 'point_of_interest', 'establishment']",2,"Stadelhofen, Gottfried-Keller-Strasse 7, Zürich",Stadelhofen, Gottfried-Keller-Strasse 7
22,Papa Joe's,ChIJrXjdVqqgmkcR_pcB-TeQjMc,47.36878,8.54462,3.9,2136,"['night_club', 'bar', 'restaurant', 'food', 'point_of_interest', 'establishment']",2,"Schifflände 18, Zürich",Schifflände 18, Zürich
23,Outback Lodge,ChIJnTBduaygmkcROGPR79oygdA,47.3669614,8.5477659,4.1,1848,"['restaurant', 'food', 'point_of_interest', 'establishment']",2,"Stadelhoferstrasse 18, Zürich",Stadelhoferstrasse 18, Zürich
24,Style Thai,ChIJv6H0IaqgmkcRBbhXSQSTx_k,47.371088,8.543411899999999,4.2,296,"['restaurant', 'food', 'point_of_interest', 'establishment']",0,"Schoffelgasse 3, Zürich",Schoffelgasse 3, Zürich
25,Weisses Kreuz,ChIJWRqq0qygmkcRwJ3WaiE_PCw,47.36609989999999,8.5487302,4.1,538,"['restaurant', 'food', 'point_of_interest', 'establishment']",2,"Falkenstrasse 27, Zürich",Falkenstrasse 27, Zürich
26,Terrasse Restaurant & Bar,ChIJzxVYF6ugmkcRCDe6d_JS4Gw,47.3678442,8.5445194,4.2,1733,"['night_club', 'bar', 'restaurant', 'food', 'point_of_interest', 'establishment']",3,"Limmatquai 3, Zürich",Limmatquai 3, Zürich
27,Commercio,ChIJjQ4qK1OnmkcRRtPQlx6SE2s,47.365959,8.548954799999999,4.2,367,"['restaurant', 'food', 'point_of_interest', 'establishment']",2,"Mühlebachstrasse 2, Zürich",Mühlebachstrasse 2, Zürich
28,Sorrento,ChIJX7AJIk2nmkcRHsUklcGi2cI,47.3643691,8.554634799999999,4.2,102,"['restaurant', 'food', 'point_of_interest', 'establishment']",2,"Forchstrasse 2, Zürich",Forchstrasse 2, Zürich
29,Tibits,ChIJJ5DwPVOnmkcRg3Xv8R6KzGo,47.3649874,8.547957199999999,4.4,2593,"['bar', 'meal_takeaway', 'cafe', 'restaurant', 'food', 'point_of_interest', 'establishment']",2,"Seefeldstrasse 2, Zürich",Seefeldstrasse 2, Zürich
30,Ban Song Thai,ChIJH4XGUqqgmkcROia7W1ypLiM,47.3694296,8.544255300000001,4.4,591,"['restaurant', 'food', 'point_of_interest', 'establishment']",2,"Kirchgasse 6, Zürich",Kirchgasse 6, Zürich
31,kaisin. seefeld,ChIJ-zKBK1mnmkcRv9fWlRoHWwk,47.362725,8.5488983,4.5,63,"['restaurant', 'meal_takeaway', 'food', 'point_of_interest', 'establishment']",0,"Kreuzstrasse 24, Zürich",Kreuzstrasse 24, Zürich
32,Weisser Wind,ChIJA9meCqugmkcRGMxn_Wsz5Bc,47.36888889999999,8.5455556,4.4,578,"['restaurant', 'food', 'point_of_interest', 'establishment']",2,"Oberdorfstrasse 20, Zürich",Oberdorfstrasse 20, Zürich
33,Mère Catherine,ChIJ5e8xJaqgmkcRfyMP8-UfJDI,47.370785,8.543811999999999,4.5,690,"['restaurant', 'bar', 'food', 'point_of_interest', 'establishment']",2,"Nägelihof 3, Zürich",Nägelihof 3, Zürich
34,Le Dézaley,ChIJr5rzOqqgmkcRYqfno8OTC1c,47.3706218,8.5438887,4.3,1743,"['restaurant', 'food', 'point_of_interest', 'establishment']",2,"Römergasse 9, Zürich",Römergasse 9, Zürich
35,Silk Lounge & Bar,ChIJiZ63bVOnmkcR56RYz-SGIYA,47.36434209999999,8.547162,4.5,120,"['restaurant', 'food', 'point_of_interest', 'establishment']",0,"Dufourstrasse 2, Zürich",Dufourstrasse 2, Zürich
36,Napulé,ChIJMdVCpxqhmkcR50w52F148K8,47.3677028,8.5465796,4.2,426,"['restaurant', 'food', 'point_of_interest', 'establishment']",2,"Stadelhoferstrasse 42, Zürich",Stadelhoferstrasse 42, Zürich
37,Bernadette,ChIJCT9ggq6nmkcR6e689hxlNCU,47.3650667,8.5463022,4.3,145,"['restaurant', 'food', 'point_of_interest', 'establishment']",3,"Sechseläutenpl. 1, Zürich",Sechseläutenpl. 1, Zürich
38,Brasserie Schiller,ChIJZ3R0RlOnmkcRDs0_uQnqgnM,47.3653662,8.5472383,3.9,1225,"['restaurant', 'food', 'point_of_interest', 'establishment']",3,"Sechseläutenpl. 10, Zürich",Sechseläutenpl. 10, Zürich
39,Conti,ChIJkavTbFOnmkcRfPtbdXVAL54,47.3645053,8.5473808,4.5,341,"['restaurant', 'food', 'point_of_interest', 'establishment']",0,"Dufourstrasse 1, Zürich",Dufourstrasse 1, Zürich
40,Royal Panda,ChIJf8zFz6SnmkcRcRY2CMEYhjM,47.3644547,8.5546625,4.8,224,"['meal_takeaway', 'restaurant', 'food', 'point_of_interest', 'establishment']",0,"Eingang bei Zollikerstrasse, Forchstrasse 2, Zürich",Eingang bei Zollikerstrasse, Forchstrasse 2
41,Tiffins Asian Kitchen,ChIJh3TsCVKnmkcRPPFzTrImq0M,47.3618925,8.5510282,4.2,632,"['meal_takeaway', 'restaurant', 'food', 'point_of_interest', 'establishment']",2,"Seefeldstrasse 61, Zürich",Seefeldstrasse 61, Zürich
42,Negishi,ChIJ0a66IqqgmkcRxtP4EjFt_qc,47.3708426,8.5435412,4.4,882,"['meal_takeaway', 'restaurant', 'food', 'point_of_interest', 'establishment']",2,"Nägelihof 1, Zürich",Nägelihof 1, Zürich
43,Koko Chicken,ChIJIW46gVyhmkcR3wcw_Vv2DDM,47.3671228,8.5474106,3.6,466,"['restaurant', 'food', 'point_of_interest', 'establishment']",0,"Stadelhoferstrasse 22, Zürich",Stadelhoferstrasse 22, Zürich
44,Santa Lucia,ChIJNVx2q6ygmkcR9KZlxwHN4To,47.3663855,8.5466932,4.2,1232,"['meal_takeaway', 'restaurant', 'food', 'point_of_interest', 'establishment']",2,"Theaterstrasse 10, Zürich",Theaterstrasse 10, Zürich
45,Restaurant Le Cèdre - Bellevue,ChIJG9MPAaugmkcRKnfu7SKdUQk,47.36866999999999,8.5443,4.0,1606,"['restaurant', 'food', 'point_of_interest', 'establishment']",3,"Schifflände 5, Zürich",Schifflände 5, Zürich
46,Ginger Restaurant,ChIJSfGzDlKnmkcR-JYhXFg-h3c,47.361841,8.550616999999999,4.3,487,"['restaurant', 'food', 'point_of_interest', 'establishment']",0,"Seefeldstrasse 62, Zürich",Seefeldstrasse 62, Zürich
47,Williams ButchersTable am Bellevue,ChIJdZLE5V6hmkcRZ_jZunmNQGg,47.3682948,8.5451546,4.7,350,"['restaurant', 'food', 'point_of_interest', 'establishment']",0,"Schifflände 6, Zürich",Schifflände 6, Zürich
48,Suan Long Seefeld,ChIJLZuHXFKnmkcRIxrG1GAwd1s,47.3629683,8.5497116,3.6,177,"['meal_takeaway', 'restaurant', 'food', 'point_of_interest', 'establishment']",2,"Seefeldstrasse 40, Zürich",Seefeldstrasse 40, Zürich
49,Studio Bellerive,ChIJ8W3zjLinmkcRKWUNU5Hfkn8,47.3622045,8.5477504,4.3,100,"['restaurant', 'bar', 'food', 'point_of_interest', 'establishment']",0,"Utoquai 47, Zürich",Utoquai 47, Zürich
50,La Rôtisserie,ChIJA4wBqwAKkEcR1Y1kaDLt-H8,47.3711107,8.5417977,4.5,253,"['restaurant', 'food', 'point_of_interest', 'establishment']",4,"Weinpl. 2, Zürich",Weinpl. 2, Zürich
51,Minine,ChIJWbNSWY-hmkcRipq7nU1jNn8,47.368997,8.5500891,4.8,262,"['restaurant', 'food', 'point_of_interest', 'establishment']",2,"Zeltweg 12, Zürich",Zeltweg 12, Zürich
52,Yooji’s,ChIJhTEqX6ugmkcRlRR6Cr2KuQ8,47.367186,8.546503,4.2,850,"['restaurant', 'food', 'point_of_interest', 'establishment']",3,"St. Urbangasse 8, Zürich",St. Urbangasse 8, Zürich
53,Bauernschänke,ChIJiZuJn6mgmkcRaGWEH7EljDw,47.3724348,8.5451847,4.5,450,"['restaurant', 'food', 'point_of_interest', 'establishment']",2,"Rindermarkt 24, Zürich",Rindermarkt 24, Zürich
54,Lemon Grass,ChIJLeko4iahmkcRJxk7wNvoN7k,47.3661744,8.5572166,4.1,109,"['meal_takeaway', 'restaurant', 'food', 'point_of_interest', 'establishment']",2,"Neptunstrasse 57, Zürich",Neptunstrasse 57, Zürich
55,Restaurant zum Grünen Glas,ChIJnbs3ZamgmkcRqAMSvICAIzU,47.37154,8.545748,4.5,308,"['meal_takeaway', 'restaurant', 'food', 'point_of_interest', 'establishment']",3,"u. Zäune 15, Zürich",u. Zäune 15, Zürich
56,Pizzeria Ristorante Molino Select,ChIJl6jRVaqgmkcRgEzkD3f4stk,47.3690532,8.5439995,4.0,882,"['meal_takeaway', 'restaurant', 'food', 'point_of_interest', 'establishment']",2,"Limmatquai 16, Zürich",Limmatquai 16, Zürich
57,Veltlinerkeller,ChIJO1F5rwAKkEcRJ7H4nRupWr4,47.37096469999999,8.5411972,4.7,221,"['restaurant', 'food', 'point_of_interest', 'establishment']",3,"Schlüsselgasse 8, Zürich",Schlüsselgasse 8, Zürich
58,Oishii,ChIJ-cCiUeOnmkcRmbQjPDVMB7U,47.362083,8.5508642,3.5,101,"['restaurant', 'food', 'point_of_interest', 'establishment']",0,"Wiesenstrasse 1, Zürich",Wiesenstrasse 1, Zürich
59,Wirtsstube Münsterhöfli,ChIJ1f0ImQAKkEcRDt7eCVz0uV0,47.3700336,8.5403322,4.3,434,"['restaurant', 'food', 'point_of_interest', 'establishment']",0,"Münsterhof 6, Zürich",Münsterhof 6, Zürich
62,Pizza Nation,ChIJg_t9LiOhmkcR0UuqBGMoCyc,47.3732647,8.543122499999999,4.9,460,"['meal_takeaway', 'restaurant', 'food', 'point_of_interest', 'establishment']",1,"Rosengasse 3, Zürich",Rosengasse 3, Zürich
63,Stripped Pizza Seefeld,ChIJ-WSwEk6nmkcRRRTihA_uxhM,47.3602448,8.5521777,4.3,678,"['meal_delivery', 'meal_takeaway', 'restaurant', 'food', 'point_of_interest', 'establishment']",2,"Seefeldstrasse 88, Zürich",Seefeldstrasse 88, Zürich
64,Kaimug,ChIJV6POMVOnmkcRu5EGkKFQrtI,47.3657322,8.548359699999999,3.2,65,"['meal_takeaway', 'restaurant', 'food', 'point_of_interest', 'establishment']",2,"Falkenstrasse 21, Zürich",Falkenstrasse 21, Zürich
68,Köchlistube,ChIJn-2yVhkKkEcRgJxDqmr69Zg,47.3732397,8.5238171,4.8,435,"['restaurant', 'food', 'point_of_interest', 'establishment']",2,"Köchlistrasse 6, Zürich",Köchlistrasse 6, Zürich
69,Meze Mediterrane Küche,ChIJky43PssLkEcRpXYy9wjKvKE,47.3770819,8.532382499999999,4.8,270,"['restaurant', 'food', 'point_of_interest', 'establishment']",0,"Freischützgasse 1, Zürich",Freischützgasse 1, Zürich
70,BUND 39 | 外滩 39 | Taste of Shanghai,ChIJRz-nPk4LkEcRmfUDxGR25Xo,47.3749533,8.5286819,4.5,157,"['restaurant', 'food', 'point_of_interest', 'establishment']",0,"Bäckerstrasse 39, Zürich",Bäckerstrasse 39, Zürich
71,Schweizer Weinstube,ChIJvTPIABoKkEcRk0x76s3Hsps,47.377522,8.525743,4.5,56,"['restaurant', 'food', 'point_of_interest', 'establishment']",1,"Hohlstrasse 49, Zürich",Hohlstrasse 49, Zürich
72,Summergarte,ChIJxxCxpxoKkEcRqDfwfuwdzK8,47.377167,8.530537299999999,4.6,245,"['restaurant', 'food', 'point_of_interest', 'establishment']",2,"Militärstrasse 49, Zürich",Militärstrasse 49, Zürich
73,YNOS,ChIJFzE5JxAKkEcR8vEp17S-8io,47.3788864,8.5315408,4.4,684,"['restaurant', 'food', 'point_of_interest', 'establishment']",2,"Europaallee 47, Zürich",Europaallee 47, Zürich
74,Loft Five,ChIJ89b43A8KkEcRO0Xx4rAWdjY,47.3783756,8.5339314,4.1,1748,"['restaurant', 'bar', 'food', 'point_of_interest', 'establishment']",3,"Europaallee 15, Zürich",Europaallee 15, Zürich
75,LÈ Cuisine | 乐厨,ChIJQ8PbCPMLkEcRvOMSxUre01s,47.3739022,8.527999399999999,4.4,154,"['meal_takeaway', 'bar', 'restaurant', 'food', 'point_of_interest', 'establishment']",0,"St. Jakobstrasse 7, Zürich",St. Jakobstrasse 7, Zürich
76,Việt Street Food,ChIJhXWTOEYLkEcRz0Ja8C-WGAc,47.3758042,8.5361745,4.3,169,"['restaurant', 'food', 'point_of_interest', 'establishment']",0,"Usteristrasse 21, Zürich",Usteristrasse 21, Zürich
77,Saigon,ChIJ4ZzajgQKkEcRkiUUiNl6VyA,47.3730058,8.532774700000001,4.4,1079,"['meal_takeaway', 'restaurant', 'food', 'point_of_interest', 'establishment']",2,"Sihlstrasse 97, Zürich",Sihlstrasse 97, Zürich
78,Gartenhof,ChIJFbo-bBwKkEcR6JM4-AYaK5I,47.371914,8.5255849,4.3,534,"['restaurant', 'food', 'point_of_interest', 'establishment']",2,"Gartenhofstrasse 1, Zürich",Gartenhofstrasse 1, Zürich
79,Nooch Asian Kitchen Badenerstrasse,ChIJq6TV-24LkEcReZUxmzJTFgM,47.3740785,8.5251402,4.5,516,"['restaurant', 'food', 'point_of_interest', 'establishment']",2,"Badenerstrasse 101, Zürich",Badenerstrasse 101, Zürich
80,Emilio,ChIJX0GueBsKkEcR2IPvt_txjoQ,47.3729881,8.5271466,4.6,219,"['restaurant', 'food', 'point_of_interest', 'establishment']",0,"Zweierstrasse 9, Zürich",Zweierstrasse 9, Zürich
81,Glogge Egge,ChIJO6xGoQYKkEcR3L8U0fsGoMw,47.37290489999999,8.5365208,4.3,126,"['bar', 'restaurant', 'food', 'point_of_interest', 'store', 'establishment']",2,"Sihlstrasse 31, Zürich",Sihlstrasse 31, Zürich
82,Restaurant Schützengasse,ChIJl2mcrAgKkEcREZACW5Xh4HU,47.3771148,8.5375415,4.4,515,"['restaurant', 'food', 'point_of_interest', 'establishment']",3,"Schützengasse 32, Zürich",Schützengasse 32, Zürich
83,Werdguet,ChIJx4_tkhwKkEcR-P0skZvkNPA,47.3715485,8.5273839,4.4,190,"['restaurant', 'food', 'point_of_interest', 'establishment']",2,"Morgartenstrasse 30, Zürich",Morgartenstrasse 30, Zürich
84,Bank,ChIJp97uPxoKkEcRz5UjdY3VvsM,47.3764146,8.5264949,4.2,1761,"['cafe', 'bar', 'restaurant', 'food', 'point_of_interest', 'establishment']",3,"Molkenstrasse 15, Zürich",Molkenstrasse 15, Zürich
85,Riithalle,ChIJx_jJswUKkEcRgwywjsQLQug,47.3747135,8.534485600000002,4.1,1425,"['bar', 'restaurant', 'food', 'point_of_interest', 'establishment']",2,"Gessnerallee 8, Zürich",Gessnerallee 8, Zürich
86,Luigia,ChIJ_0YzhycLkEcREC8sx6hleRI,47.3704873,8.5354656,4.1,2112,"['restaurant', 'food', 'point_of_interest', 'establishment']",2,"Talstrasse 61, Zürich",Talstrasse 61, Zürich
87,Aargauerhof,ChIJdwnACBoKkEcRlOZe2EYxL2w,47.37736839999999,8.526135499999999,4.3,415,"['restaurant', 'food', 'point_of_interest', 'establishment']",2,"Hohlstrasse 43, Zürich",Hohlstrasse 43, Zürich
88,Restaurant Enja,ChIJuUU5wugLkEcR5NhbqJ2qVwY,47.3737258,8.5374298,4.4,118,"['restaurant', 'park', 'bar', 'food', 'point_of_interest', 'establishment']",0,"Sihlstrasse 9, Zürich",Sihlstrasse 9, Zürich
89,Gambrinus,ChIJt_XAvhAKkEcRl7n7Rc4lXLg,47.3787295,8.5269941,4.4,237,"['restaurant', 'food', 'point_of_interest', 'establishment']",2,"Langstrasse 103, Zürich",Langstrasse 103, Zürich
90,Viet-Thai,ChIJ26B2bRAKkEcRtyARuN37eW0,47.3780746,8.5300262,4.6,255,"['restaurant', 'food', 'point_of_interest', 'establishment']",2,"Kanonengasse 31, Zürich",Kanonengasse 31, Zürich
91,James Joyce,ChIJJzJlsQYKkEcRIVgHjafHIJc,47.372227,8.537009,4.3,611,"['bar', 'restaurant', 'food', 'point_of_interest', 'establishment']",3,"Pelikanstrasse 8, Zürich",Pelikanstrasse 8, Zürich
92,Don Leone,ChIJ_whoHxsKkEcRYRhSFKK_XQQ,47.374667,8.529062,4.3,1220,"['restaurant', 'food', 'point_of_interest', 'establishment']",2,"Bäckerstrasse 31, Zürich",Bäckerstrasse 31, Zürich
93,KAIMUG HB Food Station,ChIJIQhOUFMLkEcRP3OtyjQcGLM,47.3782309,8.535991500000002,3.3,81,"['meal_takeaway', 'restaurant', 'food', 'point_of_interest', 'establishment']",2,"Sihlquai, Zürich",Sihlquai, Zürich
94,Italia,ChIJq4p1lBoKkEcRd1lYBV7M5BA,47.3763867,8.5293196,4.4,629,"['restaurant', 'food', 'point_of_interest', 'establishment']",2,"Zeughausstrasse 61, Zürich",Zeughausstrasse 61, Zürich
95,Bahnhof Wiedikon,ChIJXXQenh4KkEcRPog_N9xNBvg,47.3708903,8.5234139,4.3,470,"['restaurant', 'food', 'point_of_interest', 'establishment']",1,"Seebahnstrasse 33, Zürich",Seebahnstrasse 33, Zürich
96,Olif,ChIJ6Qe9pxAKkEcRFLTtxjxE--k,47.3776954,8.5263784,4.2,276,"['restaurant', 'food', 'point_of_interest', 'establishment']",0,"Langstrasse 81, Zürich",Langstrasse 81, Zürich
97,MAZÌ im Morgarten | Griechisches Mezze Restaurant,ChIJu1EkGaMLkEcRuXOU6Ftr0wA,47.3714862,8.527817299999999,4.5,248,"['restaurant', 'food', 'point_of_interest', 'establishment']",2,"Morgartenstrasse 26, Zürich",Morgartenstrasse 26, Zürich
98,Thach,ChIJqZ09QxAKkEcRKP3hQwz-9Rc,47.3786688,8.529901599999999,4.6,679,"['meal_takeaway', 'restaurant', 'food', 'point_of_interest', 'establishment']",1,"Militärstrasse 84, Zürich",Militärstrasse 84, Zürich
99,Masala,ChIJE_JZQxsKkEcRJF8kgqWKQBI,47.3729909,8.5290306,4.1,478,"['restaurant', 'food', 'point_of_interest', 'establishment']",2,"Stauffacherstrasse 27, Zürich",Stauffacherstrasse 27, Zürich
100,Pyramids,ChIJM7APZxwKkEcRbnJqKZiPyrM,47.3715232,8.5261363,4.6,371,"['meal_takeaway', 'restaurant', 'food', 'point_of_interest', 'establishment']",2,"Werdstrasse 99, Zürich",Werdstrasse 99, Zürich
101,Exer Bar & Restaurant,ChIJH58LiRAKkEcRsXR9dkCeniM,47.37830959999999,8.5285583,4.8,205,"['bar', 'restaurant', 'food', 'point_of_interest', 'establishment']",2,"Tellstrasse 10, Zürich",Tellstrasse 10, Zürich
102,Morgenstern da mario,ChIJlzqKixAKkEcRVRCukofxY5Q,47.3784335,8.5283851,4.2,213,"['restaurant', 'food', 'point_of_interest', 'establishment']",0,"Zwinglistrasse 27, Zürich",Zwinglistrasse 27, Zürich
103,Cartel - Crazy Burrito Shack,ChIJlxhsbwUKkEcR6A2O0zV2H7U,47.3764097,8.5332092,4.5,553,"['restaurant', 'food', 'point_of_interest', 'establishment']",0,"Militärstrasse 14, Zürich",Militärstrasse 14, Zürich
104,Holy Cow! Gourmet Burger Co.,ChIJnYn9BgYKkEcRGVDARhjzEKs,47.3762973,8.537412,4.2,1784,"['restaurant', 'food', 'point_of_interest', 'establishment']",2,"Löwenstrasse 51, Zürich",Löwenstrasse 51, Zürich
105,Miss Miu,ChIJCb8EJ-ELkEcRPpKnmAAiB28,47.3791868,8.5322145,4.1,1970,"['restaurant', 'food', 'point_of_interest', 'establishment']",2,"Europaallee 48, Zürich",Europaallee 48, Zürich
106,Vegelateria the Sacred,ChIJYXik2RoKkEcRrfJ3N8Vfp30,47.3761005,8.5288828,4.6,503,"['restaurant', 'food', 'point_of_interest', 'establishment']",2,"Müllerstrasse 64, Zürich",Müllerstrasse 64, Zürich
107,Gaijin Izakaya,ChIJmeTABmcLkEcRtvHwXmm_zQc,47.372938,8.5277922,4.7,669,"['restaurant', 'food', 'point_of_interest', 'establishment']",3,"Birmensdorferstrasse 5, Zürich",Birmensdorferstrasse 5, Zürich
108,Haus Hiltl,ChIJtwgunwYKkEcRhBQ0vi_9kHo,47.3732307,8.5367207,4.6,7599,"['meal_takeaway', 'night_club', 'bar', 'restaurant', 'food', 'point_of_interest', 'establishment']",3,"Sihlstrasse 28, Zürich",Sihlstrasse 28, Zürich
109,Peking Garden,ChIJ6beEfhkKkEcRWENKEw8qras,47.3750121,8.5245391,4.0,455,"['restaurant', 'food', 'point_of_interest', 'establishment']",2,"Langstrasse 13, Zürich",Langstrasse 13, Zürich
110,Gül,ChIJY9j_JAULkEcRlZ4yAfwVQZs,47.3786159,8.5289764,3.8,959,"['restaurant', 'food', 'point_of_interest', 'establishment']",4,"Tellstrasse 22, Zürich",Tellstrasse 22, Zürich
111,Asia Garden Langstrasse,ChIJn9AYgEELkEcRbkvkqQcQGSU,47.3791849,8.527256399999999,4.3,100,"['restaurant', 'meal_takeaway', 'food', 'point_of_interest', 'establishment']",0,"Langstrasse 117, Zürich",Langstrasse 117, Zürich
112,Burger King,ChIJlYdT3Q4KkEcRA3Yw_gJLB60,47.37959559999999,8.537168399999999,3.7,581,"['meal_takeaway', 'restaurant', 'food', 'point_of_interest', 'establishment']",2,"Zollstrasse 1, Zürich",Zollstrasse 1, Zürich
113,Conrad,ChIJlbiAmAYKkEcRjeoYk3-MIxQ,47.37290489999999,8.5365208,4.5,52,"['park', 'restaurant', 'food', 'point_of_interest', 'establishment']",0,"Sihlstrasse 31, Zürich",Sihlstrasse 31, Zürich
114,Bärengasse,ChIJXT485wAKkEcRmYgz1gFYLGA,47.37028249999999,8.5387167,4.5,536,"['restaurant', 'food', 'point_of_interest', 'establishment']",4,"Bahnhofstrasse 25, Zürich",Bahnhofstrasse 25, Zürich
115,Donde Luis,ChIJT-HFXhoKkEcRFIkuvgaIXEA,47.3760189,8.5278165,4.3,455,"['restaurant', 'food', 'point_of_interest', 'establishment']",1,"Ankerstrasse 108, Zürich",Ankerstrasse 108, Zürich
116,Kaufleuten,ChIJ7ZMwUgEKkEcRjV6Q7jc2y1I,47.3716391,8.5363625,4.2,3199,"['night_club', 'bar', 'restaurant', 'food', 'point_of_interest', 'establishment']",3,"Pelikanpl. 18, Zürich",Pelikanpl. 18, Zürich
117,Volkshaus,ChIJs_OWURoKkEcR8RJv9PVNPHo,47.3755922,8.527135,4.2,2799,"['restaurant', 'food', 'point_of_interest', 'establishment']",2,"Stauffacherstrasse 60, Zürich",Stauffacherstrasse 60, Zürich
118,McDonald's Restaurant,ChIJn1lBSRsKkEcRoAOz-8pAZDo,47.37344239999999,8.5297669,3.8,1211,"['restaurant', 'food', 'point_of_interest', 'establishment']",2,"Badenerstrasse 21, Zürich",Badenerstrasse 21, Zürich
119,ICHIZEN,ChIJZfODl0QLkEcRX4FubludgKw,47.3738122,8.527433199999999,4.8,213,"['restaurant', 'food', 'point_of_interest', 'establishment']",0,"Kanzleistrasse 15, Zürich",Kanzleistrasse 15, Zürich
120,BEETNUT,ChIJgR7zkA8KkEcRektQ-uS3OnY,47.3776303,8.5334474,4.1,568,"['meal_delivery', 'meal_takeaway', 'restaurant', 'food', 'store', 'point_of_interest', 'establishment']",2,"Lagerstrasse 16b, Zürich",Lagerstrasse 16b, Zürich
121,Più,ChIJ_ymDfQ8KkEcRbXTrrJdARo0,47.3769313,8.534834499999999,4.2,1882,"['meal_takeaway', 'bar', 'restaurant', 'food', 'point_of_interest', 'establishment']",2,"Kasernenstrasse 95, Zürich",Kasernenstrasse 95, Zürich
122,Insider Restaurant & Bar,ChIJKzqWBSELkEcR6bWQHbntnJk,47.3768854,8.5384172,4.9,55,"['cafe', 'bar', 'restaurant', 'food', 'point_of_interest', 'establishment']",2,"Löwenstrasse 64, Zürich",Löwenstrasse 64, Zürich
123,Sham Restaurant,ChIJ9xdoygsLkEcRRzvI8hKt40Y,47.380111,8.5371275,4.8,481,"['restaurant', 'food', 'point_of_interest', 'establishment']",0,"Konradstrasse 6, Zürich",Konradstrasse 6, Zürich
124,Queen Idia,ChIJhbSXaRkKkEcR7oO6HLt4E-s,47.3742368,8.5233943,4.2,205,"['restaurant', 'food', 'point_of_interest', 'establishment']",2,"Badenerstrasse 125, Zürich",Badenerstrasse 125, Zürich
125,McDonald’s,ChIJ00zJBgYKkEcRO1zQ8knw8pc,47.376478,8.537512699999999,3.8,1202,"['restaurant', 'food', 'point_of_interest', 'establishment']",2,"Löwenstrasse 53, Zürich",Löwenstrasse 53, Zürich
126,Yi Long,ChIJxSclvl4LkEcRHAvLxkN8oG0,47.37983630000001,8.5250016,4.7,138,"['meal_takeaway', 'restaurant', 'food', 'point_of_interest', 'establishment']",1,"Magnusstrasse 16, Zürich",Magnusstrasse 16, Zürich
127,Silex - Restaurant mit Wein-Fokus,ChIJsc8GuW8LkEcRFFux1FSUvpU,47.3715035,8.5245249,4.6,154,"['bar', 'restaurant', 'food', 'point_of_interest', 'establishment']",0,"Freyastrasse 3, Zürich",Freyastrasse 3, Zürich
128,Take Away Anytime,ChIJQWbP1BsKkEcR4TZFv0lJNKw,47.3750928,8.524878900000001,3.2,65,"['restaurant', 'food', 'point_of_interest', 'establishment']",0,"Langstrasse 18, Zürich",Langstrasse 18, Zürich
129,PUTPUTakeaway,ChIJx9xZ9RkKkEcR4cdglh86mNw,47.37648069999999,8.5253338,4.8,151,"['meal_takeaway', 'restaurant', 'food', 'point_of_interest', 'establishment']",2,"Stauffacherstrasse 101, Zürich",Stauffacherstrasse 101, Zürich
130,Thai Takeaway,ChIJ80xkfRsKkEcROnNaABJkZzg,47.3726235,8.5276321,4.5,57,"['restaurant', 'food', 'point_of_interest', 'establishment']",1,"Werdstrasse 62, Zürich",Werdstrasse 62, Zürich
131,Mama's Bäcki Lädeli / Kebab Imbiss,ChIJG_TYvTkLkEcRyHBKwFmJJBQ,47.3786387,8.523489099999999,4.5,28,"['meal_takeaway', 'restaurant', 'food', 'point_of_interest', 'store', 'establishment']",0,"Hohlstrasse 90, Zürich",Hohlstrasse 90, Zürich
134,Migros Take Away,ChIJH7m2i0ILkEcRZpaPlFz99RY,47.3782094,8.536004499999999,3.7,129,"['meal_takeaway', 'bakery', 'restaurant', 'food', 'point_of_interest', 'store', 'establishment']",0,"Sihlpassage, Zürich",Sihlpassage, Zürich
137,Stripped Pizza Talacker,ChIJze6A9gMKkEcRX-V6deXZ-w0,47.37184509999999,8.534849699999999,4.2,537,"['meal_delivery', 'meal_takeaway', 'restaurant', 'food', 'point_of_interest', 'establishment']",2,"Talacker 41, Zürich",Talacker 41, Zürich
138,Burgermeister Langstrasse,ChIJY2GZPuwLkEcR7QfIedzKyBY,47.3745767,8.5245803,4.3,764,"['meal_takeaway', 'restaurant', 'food', 'point_of_interest', 'establishment']",2,"Langstrasse 6, Zürich",Langstrasse 6, Zürich
139,Rice Up!,ChIJE95a6jALkEcRJGvRkmHge9k,47.3781238,8.5387711,4.1,561,"['meal_takeaway', 'restaurant', 'food', 'point_of_interest', 'establishment']",2,"Museumstrasse 1, Zürich",Museumstrasse 1, Zürich
141,Tibetaner,ChIJ6d1HwdgLkEcR3s1lupASdF0,47.380134,8.526418999999999,4.2,17,"['meal_takeaway', 'grocery_or_supermarket', 'restaurant', 'food', 'point_of_interest', 'store', 'establishment']",0,"Sihlhallenstrasse 28, Zürich",Sihlhallenstrasse 28, Zürich
142,SelnauWok,ChIJM5D_sgMKkEcRcLwHrDmrDpk,47.3698317,8.5330586,4.0,42,"['meal_takeaway', 'restaurant', 'food', 'point_of_interest', 'establishment']",2,"Selnaustrasse 5, Zürich",Selnaustrasse 5, Zürich
145,Phuket Thai Food,ChIJVdEGKxEKkEcR7mK3GLVS44M,47.3801824,8.526249,4.5,263,"['meal_takeaway', 'restaurant', 'food', 'point_of_interest', 'establishment']",2,"Schöneggstrasse 21, Zürich",Schöneggstrasse 21, Zürich
146,Long Huang,ChIJb0wAigMKkEcR7reTo_-jXGU,47.37210229999999,8.5340811,3.8,342,"['meal_takeaway', 'restaurant', 'food', 'point_of_interest', 'establishment']",2,"Talstrasse 83, Zürich",Talstrasse 83, Zürich
147,Hong Kong Take Away,ChIJt-TBiQYKkEcR8Mp9B8NJugU,47.373983,8.5375984,2.6,16,"['meal_takeaway', 'restaurant', 'food', 'point_of_interest', 'establishment']",0,"Seidengasse 1, Zürich",Seidengasse 1, Zürich
148,Hardhof,ChIJiWSc0CQKkEcR9jS9SzslYUE,47.3781918,8.510869999999999,4.5,474,"['restaurant', 'food', 'point_of_interest', 'establishment']",2,"Badenerstrasse 344, Zürich",Badenerstrasse 344, Zürich
149,eNDi Burger,ChIJAaqaoekLkEcRxaX5unPWmBI,47.3774324,8.512745599999999,4.4,518,"['restaurant', 'food', 'point_of_interest', 'establishment']",2,"Zypressenstrasse 49, Zürich",Zypressenstrasse 49, Zürich
150,Pho 50,ChIJxSaEnyQKkEcRlSYolkcqxa8,47.377314,8.5129796,4.5,383,"['restaurant', 'food', 'point_of_interest', 'establishment']",2,"Zypressenstrasse 50, Zürich",Zypressenstrasse 50, Zürich
151,Crowne Plaza Restaurant,ChIJFwRjPzAKkEcRCDKjc96quKU,47.3803363,8.5062689,3.7,29,"['bar', 'restaurant', 'food', 'point_of_interest', 'establishment']",0,"Badenerstrasse 420, Zürich",Badenerstrasse 420, Zürich
153,DelhiHouse of Bestcurry Indian/Indisches Restaurant,ChIJcUVCoCQKkEcR9FkOaQ02w0Q,47.3774278,8.5132184,4.6,614,"['meal_takeaway', 'restaurant', 'food', 'point_of_interest', 'establishment']",2,"Zypressenstrasse 52, Zürich",Zypressenstrasse 52, Zürich
154,"Restaurant Hardplatz, Takeawey Pizzeria Etna",ChIJ2z4z9TsKkEcRYr0QS_8CfpU,47.3822147,8.5145201,4.3,112,"['meal_takeaway', 'restaurant', 'food', 'point_of_interest', 'establishment']",1,"Hardpl. 7, Zürich",Hardpl. 7, Zürich
155,Züri Bistro Albisriederplatz,ChIJy1oG2SQKkEcRGkIqfSqQNTs,47.3779328,8.5107083,4.6,414,"['meal_takeaway', 'restaurant', 'food', 'point_of_interest', 'establishment']",1,"Badenerstrasse 343, Zürich",Badenerstrasse 343, Zürich
156,Ayverdi's,ChIJkXchR5oLkEcRUzLMjTa-UeQ,47.3799972,8.5061166,4.4,2068,"['meal_takeaway', 'restaurant', 'food', 'point_of_interest', 'establishment']",2,"Badenerstrasse 415, Zürich",Badenerstrasse 415, Zürich
157,New Point,ChIJ8w7wKyUKkEcRF-Zi8pWrAP0,47.3785415,8.5100907,4.0,580,"['restaurant', 'food', 'point_of_interest', 'establishment']",2,"Albisrieder - Platz 5, Zürich",Albisrieder - Platz 5, Zürich
158,Shilla,ChIJfQ6YhjEKkEcREfgJ8_2UoUc,47.3815037,8.5026285,4.3,702,"['restaurant', 'food', 'point_of_interest', 'establishment']",3,"Badenerstrasse 505, Zürich",Badenerstrasse 505, Zürich
159,Stoller,ChIJays7NCUKkEcRpqieuBdP9Mo,47.3784332,8.5094304,4.3,163,"['restaurant', 'food', 'point_of_interest', 'establishment']",2,"Badenerstrasse 357, Zürich",Badenerstrasse 357, Zürich
160,Café Boy,ChIJa_xULiMKkEcREJP_a6KdM7c,47.3778919,8.516025599999999,4.5,348,"['restaurant', 'food', 'point_of_interest', 'establishment']",2,"Kochstrasse 2, Zürich",Kochstrasse 2, Zürich
161,Singapore,ChIJCdYZozMKkEcRU8vtTeOrA9c,47.38305889999999,8.5003758,4.1,977,"['restaurant', 'food', 'point_of_interest', 'establishment']",2,"Badenerstrasse 530, Zürich",Badenerstrasse 530, Zürich
162,Five Spice,ChIJAxTMVyIKkEcRavYDFivOuU4,47.37583859999999,8.516393599999999,4.4,338,"['restaurant', 'food', 'point_of_interest', 'establishment']",2,"Sihlfeldstrasse 81, Zürich",Sihlfeldstrasse 81, Zürich
163,Ristorante Da Angela,ChIJqSTmrDUKkEcR0m_hQ4yCtKc,47.3869597,8.5014465,4.7,613,"['restaurant', 'food', 'point_of_interest', 'establishment']",3,"Hohlstrasse 449, Zürich",Hohlstrasse 449, Zürich
164,Taverne Da Angelo,ChIJWQIzYGoMkEcRZj6w_HsxRdQ,47.3761686,8.514820499999999,4.6,402,"['restaurant', 'food', 'point_of_interest', 'establishment']",2,"Badenerstrasse 275, Zürich",Badenerstrasse 275, Zürich
166,Azzurro,ChIJkcN4qjUKkEcRi7RoyCJxyMg,47.3870813,8.5009534,4.4,1181,"['restaurant', 'food', 'point_of_interest', 'establishment']",2,"Hohlstrasse 451, Zürich",Hohlstrasse 451, Zürich
167,Little Thai,ChIJFwIhUCIKkEcR6qQid0SILdY,47.3752421,8.5163199,4.4,52,"['restaurant', 'food', 'point_of_interest', 'establishment']",0,"Bertastrasse 3, Zürich",Bertastrasse 3, Zürich
168,Paprika,ChIJvQ1_4y8KkEcRJyZ6OxdYefM,47.3787264,8.5065026,4.6,67,"['restaurant', 'food', 'point_of_interest', 'establishment']",0,"Brahmsstrasse 22, Zürich",Brahmsstrasse 22, Zürich
169,Huusbeiz,ChIJN1HfnSQKkEcRORLDyUnrUfo,47.3774842,8.5125639,4.7,299,"['restaurant', 'food', 'point_of_interest', 'establishment']",2,"Badenerstrasse 310, Zürich",Badenerstrasse 310, Zürich
170,Grotto Reale,ChIJ67Fq9CMKkEcRI8LvsQaO5ZI,47.37472450000001,8.512694699999999,4.4,240,"['meal_takeaway', 'restaurant', 'food', 'point_of_interest', 'establishment']",2,"Martastrasse 145, Zürich",Martastrasse 145, Zürich
171,GEBETA Bar & Restaurant,ChIJ1b7tbMQLkEcR81aGW_c0ge0,47.375128,8.517325,4.8,171,"['bar', 'restaurant', 'food', 'point_of_interest', 'establishment']",0,"Meinrad-Lienert-Strasse 27, Zürich",Meinrad-Lienert-Strasse 27, Zürich
172,Restaurant Mediacampus,ChIJ9xkREDQKkEcR6U-gL-Phsw0,47.3849406,8.5032239,4.3,101,"['restaurant', 'food', 'point_of_interest', 'establishment']",1,"Baslerstrasse 30, Zürich",Baslerstrasse 30, Zürich
173,SBB Restaurant,ChIJVeC3LDQKkEcRvhSWwQ_7VPI,47.3856419,8.507034599999999,4.5,126,"['restaurant', 'food', 'point_of_interest', 'establishment']",1,"Hohlstrasse 364, Zürich",Hohlstrasse 364, Zürich
174,Filfl,ChIJ65ZiZoYLkEcRJD9l6pcHHXA,47.3753268,8.5154023,4.5,227,"['restaurant', 'food', 'point_of_interest', 'establishment']",0,"Zentralstrasse 136, Zürich",Zentralstrasse 136, Zürich
175,Oval,ChIJb71EzjMKkEcR5idwS4PmBRw,47.3826276,8.501093599999999,3.9,10,"['restaurant', 'food', 'point_of_interest', 'establishment']",0,"Badenerstrasse 500, Zürich",Badenerstrasse 500, Zürich
176,Restaurant Hardplatz chez Thomas,ChIJI075jE0LkEcRyfkf2o-tPps,47.3824412,8.514153,4.8,79,"['restaurant', 'food', 'point_of_interest', 'establishment']",0,"Hardpl. 9, Zürich",Hardpl. 9, Zürich
178,Sher-E-Punjab,ChIJHw3CQCIKkEcR4aYKXgJKKCM,47.3745883,8.516836,4.1,194,"['meal_takeaway', 'restaurant', 'food', 'point_of_interest', 'establishment']",0,"Sihlfeldstrasse 45, Zürich",Sihlfeldstrasse 45, Zürich
179,LY'S ASIA,ChIJ43K0JD8KkEcR42DjKop8Mno,47.3863408,8.5170236,3.5,620,"['restaurant', 'food', 'point_of_interest', 'establishment']",2,"Zahnradstrasse 21, Zürich",Zahnradstrasse 21, Zürich
180,McDonald's,ChIJz55lLTUKkEcRBrNV_AZrT4Y,47.3878169,8.497967599999999,3.9,1504,"['restaurant', 'cafe', 'food', 'point_of_interest', 'establishment']",2,"Hohlstrasse 467, Zürich",Hohlstrasse 467, Zürich
181,Pizza Züri,ChIJw9diWjMKkEcRCS4sY54su-8,47.384269,8.497848099999999,4.5,400,"['bar', 'meal_takeaway', 'restaurant', 'food', 'point_of_interest', 'establishment']",2,"Badenerstrasse 558, Zürich",Badenerstrasse 558, Zürich
182,LÉGÈRE Bar & Restaurant,ChIJT5Wo0JILkEcRYaLSXGBRYSY,47.3763962,8.514312,4.8,108,"['restaurant', 'bar', 'food', 'point_of_interest', 'establishment']",0,"Badenerstrasse 281, Zürich",Badenerstrasse 281, Zürich
183,Suan Long,ChIJ29D1MCUKkEcR3iiFwsoQzeo,47.378349,8.509527799999999,4.1,98,"['meal_takeaway', 'restaurant', 'food', 'point_of_interest', 'establishment']",2,"Badenerstrasse 355, Zürich",Badenerstrasse 355, Zürich
184,Mo Sushi & Dim Sum,ChIJVZmUkE8LkEcRxr7XKxYw4yE,47.3789139,8.5152026,4.9,94,"['restaurant', 'food', 'point_of_interest', 'establishment']",0,"Kanzleistrasse 231, Zürich",Kanzleistrasse 231, Zürich
185,Iberia Tapas,ChIJf-tA2IgLkEcRfAbrxK6FyzQ,47.3782758,8.5087026,4.7,380,"['bar', 'restaurant', 'food', 'point_of_interest', 'establishment']",2,"Albisriederstrasse 16, Zürich",Albisriederstrasse 16, Zürich
186,Al Mouchtar,ChIJK6zEl0wLkEcR2IvO9uXUUWI,47.3826944,8.5002366,4.5,314,"['restaurant', 'food', 'point_of_interest', 'establishment']",1,"Badenerstrasse 541, Zürich",Badenerstrasse 541, Zürich
187,Da Cono,ChIJ548QuDMKkEcRuHxN03faOkU,47.3826408,8.5010656,4.1,653,"['restaurant', 'food', 'point_of_interest', 'establishment']",2,"Badenerstrasse 526, Zürich",Badenerstrasse 526, Zürich
188,Café du Bonheur,ChIJQ4cH5jwKkEcRKEAu1xDMOIQ,47.3799123,8.5163095,4.3,752,"['cafe', 'restaurant', 'food', 'point_of_interest', 'establishment']",2,"Zypressenstrasse 115, Zürich",Zypressenstrasse 115, Zürich
189,Lily's,ChIJ55VuXCIKkEcRpHexd1eLPL0,47.3754316,8.5168614,4.2,1055,"['restaurant', 'food', 'point_of_interest', 'establishment']",2,"Sihlfeldstrasse 58, Zürich",Sihlfeldstrasse 58, Zürich
191,Grazie,ChIJlRCFdQQLkEcREAe--ic6x0s,47.3747832,8.5173493,3.8,119,"['meal_takeaway', 'bar', 'restaurant', 'food', 'point_of_interest', 'establishment']",0,"Weststrasse 192, Zürich",Weststrasse 192, Zürich
192,Z am Park,ChIJPYxk9CQKkEcRwavC2lu73WU,47.3765377,8.511362499999999,4.2,408,"['cafe', 'bar', 'restaurant', 'food', 'point_of_interest', 'establishment']",2,"Zurlindenstrasse 275, Zürich",Zurlindenstrasse 275, Zürich
193,Freihof,ChIJh7q9dDMKkEcR99OMkjCBRG4,47.3834263,8.4995149,4.3,89,"['restaurant', 'food', 'point_of_interest', 'establishment']",1,"Badenerstrasse 540, Zürich",Badenerstrasse 540, Zürich
194,Platform,ChIJVVVVVUgKkEcRb9D6bgTifsI,47.3859775,8.516149799999999,4.6,49,"['restaurant', 'food', 'point_of_interest', 'establishment']",1,"Maagpl. 1, Zürich",Maagpl. 1, Zürich
195,Letzistübli,ChIJzQCorS0KkEcRjtT4Z7vcRkU,47.3773706,8.4986348,4.5,75,"['restaurant', 'food', 'point_of_interest', 'establishment']",1,"Albisriederstrasse 171, Zürich",Albisriederstrasse 171, Zürich
196,Ooki Pavillon,ChIJESC-RwwLkEcRPB9vn4piukk,47.3807607,8.5040829,4.5,367,"['restaurant', 'food', 'point_of_interest', 'establishment']",0,"Badenerstrasse 457, Zürich",Badenerstrasse 457, Zürich
200,Pizzacasa,ChIJA1t-dCMKkEcRy3qHLpAZVyc,47.3763217,8.514206,3.8,119,"['meal_takeaway', 'restaurant', 'food', 'point_of_interest', 'establishment']",0,"Badenerstrasse 281, Zürich",Badenerstrasse 281, Zürich
201,Ararat,ChIJD-FaWiIKkEcR0OUoTnmczhs,47.3753853,8.516472499999999,4.5,431,"['meal_takeaway', 'restaurant', 'food', 'point_of_interest', 'establishment']",1,"Bertastrasse 1, Zürich",Bertastrasse 1, Zürich
202,mit&ohne kebab | restaurant & take away,ChIJMT22CRQLkEcR3xORxgoKIzs,47.3759474,8.5161718,4.7,1100,"['meal_takeaway', 'restaurant', 'food', 'point_of_interest', 'establishment']",0,"Badenerstrasse 248, Zürich",Badenerstrasse 248, Zürich
203,Lucky's Thai Food Take Away & Catering Letzipark,ChIJJT6kw60JkEcROK-YJqLsq_4,47.3863686,8.498194699999999,4.7,10,"['meal_takeaway', 'restaurant', 'food', 'point_of_interest', 'establishment']",0,"Lucky‘s Thai Food Take Away & Catering Letzipark, Baslerstrasse 50, Zürich",Lucky‘s Thai Food Take Away & Catering Letzipark, Baslerstrasse 50
204,Damas,ChIJfZ_6lmkKkEcR1ZOy7r6cjOQ,47.3933296,8.526319200000001,4.5,293,"['meal_delivery', 'restaurant', 'food', 'point_of_interest', 'establishment']",2,"Kyburgstrasse 28, Zürich",Kyburgstrasse 28, Zürich
205,FreshOrient,ChIJFwBC4mkKkEcRKceUKn__Wlw,47.393395,8.5242263,4.4,85,"['meal_takeaway', 'restaurant', 'food', 'point_of_interest', 'establishment']",0,"Wipkingerweg 2, Zürich",Wipkingerweg 2, Zürich
206,Osteria Centrale,ChIJeY4ysm4KkEcRRr1vBg7RZHI,47.3928626,8.5304611,4.3,187,"['restaurant', 'food', 'point_of_interest', 'establishment']",2,"Nordstrasse 205, Zürich",Nordstrasse 205, Zürich
207,The Artisan,ChIJRaoZN2kKkEcRYIO7pIknqc8,47.3937454,8.5297925,4.3,900,"['restaurant', 'food', 'point_of_interest', 'establishment']",2,"Nordbrücke 4, Zürich",Nordbrücke 4, Zürich
208,New Avataar,ChIJx0zlYCYIkEcRSPeTNf1nFUc,47.3938762,8.5311322,4.6,170,"['meal_delivery', 'meal_takeaway', 'restaurant', 'food', 'point_of_interest', 'establishment']",2,"Rütschistrasse 29, Zürich",Rütschistrasse 29, Zürich
209,Chaima,ChIJp5yuPG8KkEcRjzzUjd86UEE,47.3950967,8.5319054,4.7,112,"['meal_takeaway', 'restaurant', 'food', 'point_of_interest', 'establishment']",2,"Lägernstrasse 32, Zürich",Lägernstrasse 32, Zürich
210,Flying Pizza,ChIJdQ09CGkKkEcRZrlHe3TOrqI,47.3939768,8.5274553,4.2,323,"['restaurant', 'food', 'point_of_interest', 'establishment']",1,"Nordstrasse 245, Zürich",Nordstrasse 245, Zürich
211,Taj Palace,ChIJfYsbtWsKkEcRxDSTi3PGeSg,47.39094679999999,8.5264546,3.8,260,"['restaurant', 'food', 'point_of_interest', 'establishment']",0,"Hönggerstrasse 25, Zürich",Hönggerstrasse 25, Zürich
212,San Gennaro,ChIJWyFwBOwLkEcRnGcu2aJaGys,47.3915947,8.5250597,4.4,1850,"['restaurant', 'food', 'point_of_interest', 'establishment']",2,"Hönggerstrasse 43, Zürich",Hönggerstrasse 43, Zürich
213,Meister Gao,ChIJ6VSr92UKkEcRPMLEA8JNvIY,47.3973029,8.532267599999999,4.4,196,"['restaurant', 'food', 'point_of_interest', 'establishment']",2,"Rötelstrasse 125, Zürich",Rötelstrasse 125, Zürich
214,Sushi Dining Ototo,ChIJF4QNpW4KkEcRkFt_whIYdAQ,47.3925732,8.5308195,4.6,161,"['restaurant', 'food', 'point_of_interest', 'establishment']",2,"Nordstrasse 199, Zürich",Nordstrasse 199, Zürich
215,Bebos,ChIJeWWQb14LkEcRC_sOxKLecGw,47.3897261,8.5219734,4.8,1555,"['restaurant', 'food', 'point_of_interest', 'establishment']",2,"Hardstrasse 310, Zürich",Hardstrasse 310, Zürich
216,Burgermeister Escherwyss,ChIJl_roH6ILkEcRlO0VYUmaVNc,47.3900349,8.5222682,4.3,859,"['meal_takeaway', 'restaurant', 'food', 'point_of_interest', 'establishment']",2,"Hardstrasse 316, Zürich",Hardstrasse 316, Zürich
217,Nordbrücke,ChIJL1PWR2kKkEcRXo_Cz2BA8EY,47.3933386,8.5294512,4.4,625,"['cafe', 'bar', 'restaurant', 'food', 'point_of_interest', 'establishment']",2,"Dammstrasse 58, Zürich",Dammstrasse 58, Zürich
218,Am Damm,ChIJfUtYO2sKkEcR5NOiqUzIfXk,47.3883857,8.526479,4.7,21,"['meal_takeaway', 'restaurant', 'food', 'point_of_interest', 'establishment']",0,"Dammweg 6, Zürich",Dammweg 6, Zürich
219,Costa Brava,ChIJHRtC32oKkEcR4smxnTizITU,47.3884769,8.5256554,4.6,297,"['restaurant', 'food', 'point_of_interest', 'establishment']",0,"Limmatstrasse 267, Zürich",Limmatstrasse 267, Zürich
220,Kitchen Republic Zürich-West,ChIJ0SegmxuhmkcRxYpP8ERCUtE,47.3889408,8.5222619,4.4,474,"['meal_takeaway', 'restaurant', 'food', 'point_of_interest', 'establishment']",2,"Heinrichstrasse 239, Zürich",Heinrichstrasse 239, Zürich
221,Wurst & Moritz,ChIJFWaUMkAKkEcRsn-E7jkauPE,47.3901512,8.5223141,4.4,1041,"['meal_takeaway', 'restaurant', 'food', 'point_of_interest', 'establishment']",2,"Hardstrasse 318, Zürich",Hardstrasse 318, Zürich
222,Tacos Plaza,ChIJi0_p1EEKkEcR7LCLv60d1kM,47.3903024,8.5229505,3.9,454,"['restaurant', 'food', 'point_of_interest', 'establishment']",2,"Limmatstrasse 317, Zürich",Limmatstrasse 317, Zürich
223,Spaghetti Pomodoro,ChIJfUqc00EKkEcRGVd4dZ0E2vU,47.3903283,8.522816299999999,4.0,653,"['restaurant', 'food', 'point_of_interest', 'establishment']",2,"Hardstrasse 324, Zürich",Hardstrasse 324, Zürich
224,The Butcher,ChIJD3RIGEAKkEcR5sp9CoR-nEo,47.3887106,8.5221901,4.1,936,"['restaurant', 'food', 'point_of_interest', 'establishment']",2,"Heinrichstrasse 239, Zürich",Heinrichstrasse 239, Zürich
225,Tacos & Chile,ChIJo-b9gfoLkEcRta2q9Db9vEk,47.3903024,8.5229505,3.8,128,"['restaurant', 'food', 'point_of_interest', 'establishment']",0,"Limmatstrasse 317, Zürich",Limmatstrasse 317, Zürich
226,Limmathof,ChIJ8ZyNTGsKkEcR3EEVNIgXwyw,47.3875324,8.5273518,4.5,245,"['bar', 'restaurant', 'food', 'point_of_interest', 'establishment']",2,"Limmatstrasse 217, Zürich",Limmatstrasse 217, Zürich
227,Don paco,ChIJcUxAAHALkEcRrIfL59C8098,47.3884769,8.5256557,4.9,61,"['liquor_store', 'restaurant', 'food', 'point_of_interest', 'store', 'establishment']",0,"Limmatstrasse 267, Zürich",Limmatstrasse 267, Zürich
228,Nooch Asian Kitchen Steinfels Zürich,ChIJyxjjDEAKkEcRpPZ0Vwvz-as,47.3886254,8.521213399999999,4.3,1460,"['restaurant', 'food', 'point_of_interest', 'establishment']",2,"Heinrichstrasse 267, Zürich",Heinrichstrasse 267, Zürich
229,Amici,ChIJLRgPfXAKkEcRjHJG0BFcOZE,47.395835,8.5399418,4.2,465,"['bar', 'restaurant', 'food', 'point_of_interest', 'establishment']",2,"Schaffhauserstrasse 113, Zürich",Schaffhauserstrasse 113, Zürich
230,Markthalle,ChIJzfXvJGsKkEcRXdxK_k7BqT4,47.3876624,8.5260853,4.3,1898,"['cafe', 'bar', 'restaurant', 'food', 'point_of_interest', 'store', 'establishment']",2,"Limmatstrasse 231, Zürich",Limmatstrasse 231, Zürich
231,Differente,ChIJ-RppE3MKkEcRplBfDTGWmIc,47.3881111,8.5390979,4.6,451,"['restaurant', 'food', 'point_of_interest', 'establishment']",2,"Schaffhauserstrasse 1, Zürich",Schaffhauserstrasse 1, Zürich
232,Edi's,ChIJ4xFjC3MKkEcRYqRroSDM1Nw,47.3886743,8.539310799999999,4.9,212,"['restaurant', 'food', 'point_of_interest', 'establishment']",1,"Schaffhauserstrasse 10, Zürich",Schaffhauserstrasse 10, Zürich
233,Angry Chicken Zürich-West,ChIJs3BWEmKhmkcRcZPrXYHJTBc,47.3889067,8.5220909,3.3,52,"['meal_takeaway', 'restaurant', 'food', 'point_of_interest', 'establishment']",0,"Heinrichstrasse 239, Zürich",Heinrichstrasse 239, Zürich
234,Hua,ChIJuwq-0kEKkEcR4TemPcjir6I,47.3902458,8.522504699999999,3.9,129,"['restaurant', 'food', 'point_of_interest', 'establishment']",0,"Hardstrasse 320, Zürich",Hardstrasse 320, Zürich
235,Moudi's Lecker Cafe,ChIJk6nZanMKkEcR2T6p2MEBW2Q,47.3878822,8.539208100000002,4.5,357,"['restaurant', 'food', 'point_of_interest', 'establishment']",2,"Kronenstrasse 48, Zürich",Kronenstrasse 48, Zürich
236,Indian BBQ,ChIJ6b4RPIwLkEcRB7Z0SXmTiCQ,47.39312899999999,8.520988,4.7,224,"['restaurant', 'food', 'point_of_interest', 'establishment']",2,"Breitensteinstrasse 21, Zürich",Breitensteinstrasse 21, Zürich
237,Restaurant SAHltimbocca,ChIJB2ucOW8KkEcRjF-B0oYG2sI,47.3955232,8.5317042,4.5,80,"['restaurant', 'food', 'point_of_interest', 'establishment']",0,"Lägernstrasse 37, Zürich",Lägernstrasse 37, Zürich
238,Gonzalez,ChIJO8kkgHAKkEcRTNFX6ZuN0as,47.39624269999999,8.5403286,4.6,265,"['restaurant', 'food', 'point_of_interest', 'establishment']",3,"Schaffhauserstrasse 121, Zürich",Schaffhauserstrasse 121, Zürich
239,Troja,ChIJTyQIFWkKkEcR5LP97NhaEXU,47.3936676,8.5286489,4.4,129,"['restaurant', 'food', 'point_of_interest', 'establishment']",0,"Nordstrasse 223, Zürich",Nordstrasse 223, Zürich
240,Bibim Shack - Escher Wyss,ChIJ0fN6AngLkEcRVPN_ts3BNPg,47.39029739999999,8.5226473,4.2,188,"['restaurant', 'food', 'point_of_interest', 'establishment']",0,"Hardstrasse 322, Zürich",Hardstrasse 322, Zürich
241,4. Akt,ChIJ34KEOUAKkEcRcGOmtvMeyxo,47.3894974,8.5217265,4.0,414,"['bar', 'restaurant', 'food', 'point_of_interest', 'establishment']",2,"Heinrichstrasse 262, Zürich",Heinrichstrasse 262, Zürich
242,Ambrosi,ChIJh3JxMBUKkEcRA6x0lUy0pDs,47.3870844,8.5243603,4.3,521,"['cafe', 'bar', 'restaurant', 'food', 'point_of_interest', 'establishment']",2,"Viaduktstrasse 37, Zürich",Viaduktstrasse 37, Zürich
244,Libanes Take-Away,ChIJi4hHCnEKkEcRQHlzxL7YHcE,47.3929049,8.5393326,4.6,515,"['restaurant', 'food', 'point_of_interest', 'establishment']",1,"Schaffhauserstrasse 74, Zürich",Schaffhauserstrasse 74, Zürich
248,Negishi Sushi Bar @ Kitchen Republic Zürich-West,ChIJ9XFNNaMLkEcRFoVRp-zNp2E,47.3889408,8.5222619,3.9,17,"['meal_takeaway', 'restaurant', 'food', 'point_of_interest', 'establishment']",0,"Heinrichstrasse 239, Zürich",Heinrichstrasse 239, Zürich
250,Mesob,ChIJWYb8UyAKkEcR_bLiO0wIq3M,47.3708811,8.5147811,4.6,542,"['meal_takeaway', 'restaurant', 'food', 'bar', 'point_of_interest', 'establishment']",2,"Rotachstrasse 33, Zürich",Rotachstrasse 33, Zürich
252,Liyu Restaurant,ChIJnzVT2kgLkEcRIcuF6yylS4o,47.37049589999999,8.5167456,5.0,84,"['restaurant', 'food', 'point_of_interest', 'establishment']",0,"Birmensdorferstrasse 191, Zürich",Birmensdorferstrasse 191, Zürich
253,Treffpunkt,ChIJFY_LFicKkEcRFycdhUPPJdw,47.3706597,8.509334899999999,3.9,46,"['restaurant', 'food', 'point_of_interest', 'establishment']",0,"Gutstrasse 10, Zürich",Gutstrasse 10, Zürich
254,Flash Take-Away,ChIJPU2G8CAKkEcRgDbfl5WwVeY,47.3704918,8.513680299999999,4.2,151,"['meal_takeaway', 'restaurant', 'food', 'point_of_interest', 'establishment']",1,"Kalkbreitestrasse 136, Zürich",Kalkbreitestrasse 136, Zürich
255,Les Délices d'Orient,ChIJe7IgyiEKkEcRKbwbMKKSShM,47.3713778,8.5162661,4.6,195,"['restaurant', 'food', 'point_of_interest', 'establishment']",0,"Aemtlerstrasse 18, Zürich",Aemtlerstrasse 18, Zürich
256,Xi Muoi,ChIJabObpvILkEcRqWuvgXs_Rjc,47.3705975,8.5137603,4.1,237,"['meal_takeaway', 'restaurant', 'food', 'point_of_interest', 'establishment']",0,"Kalkbreitestrasse 134, Zürich",Kalkbreitestrasse 134, Zürich
257,Daizy,ChIJZQlSgYwJkEcRcexXz82dnrg,47.3631413,8.5124634,4.5,764,"['restaurant', 'food', 'bar', 'point_of_interest', 'establishment']",2,"Räffelstrasse 28, Zürich",Räffelstrasse 28, Zürich
258,Scheidegg,ChIJ-z9plh8KkEcRTKlPYZ3XyrA,47.3700155,8.5183985,3.7,62,"['restaurant', 'food', 'point_of_interest', 'establishment']",1,"Kehlhofstrasse 2, Zürich",Kehlhofstrasse 2, Zürich
259,Yardbird Southern Fried Chicken,ChIJTZRoshgKkEcRJ2xjPbXw4JA,47.3733929,8.518994,4.5,1528,"['restaurant', 'food', 'point_of_interest', 'establishment']",2,"Weststrasse 146, Zürich",Weststrasse 146, Zürich
260,Plüsch,ChIJQ4MBzCEKkEcRzr05Lci8e7E,47.3712981,8.5163383,4.4,465,"['bar', 'cafe', 'restaurant', 'food', 'point_of_interest', 'establishment']",2,"Aemtlerstrasse 16, Zürich",Aemtlerstrasse 16, Zürich
261,Hopfenau,ChIJJ6lySPQJkEcRT0YbzxYezDA,47.3651312,8.5200101,4.8,278,"['restaurant', 'food', 'point_of_interest', 'establishment']",3,"Hopfenstrasse 19, Zürich",Hopfenstrasse 19, Zürich
262,La piccola Trattoria,ChIJp9s93iMKkEcRDuRMcwf5l50,47.3738778,8.5137077,4.4,160,"['restaurant', 'food', 'point_of_interest', 'establishment']",0,"Aemtlerstrasse 86, Zürich",Aemtlerstrasse 86, Zürich
263,Bottega Berta,ChIJ_62N5iMKkEcRjqkWkkiMKhc,47.37410149999999,8.5135446,4.5,204,"['restaurant', 'food', 'point_of_interest', 'establishment']",2,"Bertastrasse 36, Zürich",Bertastrasse 36, Zürich
264,Piratino 2,ChIJSbDV-qoJkEcRBHxJFn6RTfE,47.3646109,8.5105702,3.7,109,"['meal_takeaway', 'restaurant', 'food', 'point_of_interest', 'establishment']",0,"Sieberstrasse 12, Zürich",Sieberstrasse 12, Zürich
265,Pery,ChIJn9FDFx8KkEcR7yxlX7Y0OvI,47.3716997,8.519776799999999,4.6,55,"['restaurant', 'food', 'bar', 'point_of_interest', 'establishment']",0,"Zentralstrasse 36, Zürich",Zentralstrasse 36, Zürich
267,Il Basilico Pizzakurier,ChIJfTG69icKkEcRyzgcPuO0GuA,47.3695534,8.5058616,4.0,518,"['meal_takeaway', 'meal_delivery', 'restaurant', 'food', 'point_of_interest', 'establishment']",0,"Birmensdorferstrasse 364, Zürich",Birmensdorferstrasse 364, Zürich
268,Chez Loco,ChIJCYp3WS4JkEcRy-bNCjEoumg,47.3689101,8.5036522,4.9,38,"['restaurant', 'food', 'point_of_interest', 'establishment']",0,"Birmensdorferstrasse 393, Zürich",Birmensdorferstrasse 393, Zürich
270,Le Mezzerie de Moudi,ChIJMZH45iMKkEcRkGKzKdLm4fI,47.3740732,8.5135824,4.3,217,"['cafe', 'restaurant', 'food', 'store', 'point_of_interest', 'establishment']",2,"Bertastrasse 36, Zürich",Bertastrasse 36, Zürich
271,Piazza,ChIJOTIi0SMKkEcReaJIysQ7lvU,47.373959,8.514556299999999,4.3,261,"['restaurant', 'cafe', 'food', 'point_of_interest', 'establishment']",2,"Idaplatz 2, Zürich",Idaplatz 2, Zürich
272,Miki Burgers,ChIJvW-RhycLkEcR9bHrG0knvWQ,47.3744443,8.5182523,3.9,110,"['meal_takeaway', 'restaurant', 'food', 'point_of_interest', 'establishment']",0,"Marienstrasse 17, Zürich",Marienstrasse 17, Zürich
273,Mezzo,ChIJy4IRk_MJkEcRpNkRMhEPWJ4,47.3626335,8.519102199999999,4.2,347,"['cafe', 'bar', 'restaurant', 'food', 'point_of_interest', 'establishment']",2,"Eichstrasse 29, Zürich",Eichstrasse 29, Zürich
275,Ploy,ChIJE1IxEvQJkEcR7xC6i0KaQec,47.3639419,8.5201534,4.2,131,"['restaurant', 'food', 'point_of_interest', 'establishment']",2,"Uetlibergstrasse 38, Zürich",Uetlibergstrasse 38, Zürich
276,Gasthof Falken,ChIJ8RG3KLgLkEcRn70lr6f_knw,47.3702346,8.519485999999999,4.3,663,"['restaurant', 'food', 'point_of_interest', 'establishment']",2,"Birmensdorferstrasse 150, Zürich",Birmensdorferstrasse 150, Zürich
277,Grottino,ChIJm2XJzCEKkEcRb-QlPiaei8c,47.3709585,8.5163891,4.4,434,"['restaurant', 'food', 'point_of_interest', 'establishment']",2,"Aemtlerstrasse 11, Zürich",Aemtlerstrasse 11, Zürich
278,Richie's Chicken,ChIJKfzmKCALkEcRmqKCGR6ynGc,47.3711204,8.516230199999999,4.6,251,"['meal_takeaway', 'restaurant', 'food', 'point_of_interest', 'establishment']",0,"Aemtlerstrasse 13, Zürich",Aemtlerstrasse 13, Zürich
279,Pizzeria Bella Napoli,ChIJHf9xGLILkEcRiEtior59bQ8,47.3700701,8.5131081,3.8,42,"['restaurant', 'food', 'point_of_interest', 'establishment']",0,"Birmensdorferstrasse 249, Zürich",Birmensdorferstrasse 249, Zürich
280,Schiwago,ChIJGaZNbccLkEcRGbQjew2cLb4,47.3723102,8.5103824,4.5,77,"['restaurant', 'food', 'point_of_interest', 'establishment']",0,"Bertastrasse 76, Zürich",Bertastrasse 76, Zürich
281,Meskerem,ChIJfTG69icKkEcRd97fJwLeQbY,47.3695343,8.505701199999999,4.6,136,"['restaurant', 'food', 'point_of_interest', 'establishment']",2,"Birmensdorferstrasse 364, Zürich",Birmensdorferstrasse 364, Zürich
282,Tamarind Hill,ChIJPTnaTlsJkEcRm7TCtI1MZYA,47.3686136,8.501603099999999,4.3,231,"['meal_takeaway', 'bar', 'restaurant', 'food', 'point_of_interest', 'establishment']",0,"Birmensdorferstrasse 427, Zürich",Birmensdorferstrasse 427, Zürich
283,Payamlino,ChIJJfq3qPMJkEcRJfpxRUjxbEE,47.3615444,8.5178944,4.2,197,"['restaurant', 'food', 'point_of_interest', 'establishment']",1,"Uetlibergstrasse 103, Zürich",Uetlibergstrasse 103, Zürich
288,Palu Take Away,ChIJ4fvZsYoJkEcR2py2OC9iblo,47.3679598,8.515791700000001,4.4,30,"['food', 'point_of_interest', 'establishment']",1,"Goldbrunnenstrasse 57, Zürich",Goldbrunnenstrasse 57, Zürich
290,Moon Restaurant,ChIJZ5eWN3gLkEcRUdsD90c91vw,47.3904268,8.4802124,4.6,183,"['restaurant', 'food', 'point_of_interest', 'establishment']",1,"Badenerstrasse 740, Zürich",Badenerstrasse 740, Zürich
291,Musti Grill,ChIJJbOq8MgLkEcRFHVPIkZEvEI,47.3875354,8.488245599999999,4.5,539,"['restaurant', 'food', 'point_of_interest', 'establishment']",2,"Saumackerstrasse 48, Zürich",Saumackerstrasse 48, Zürich
292,La Taquería (Altstetten),ChIJ2xL3d8gLkEcRxCMPd7US9W4,47.3886542,8.4862676,4.6,2290,"['restaurant', 'food', 'point_of_interest', 'establishment']",2,"Altstetterstrasse 140a, Zürich",Altstetterstrasse 140a, Zürich
293,Restaurant Casino,ChIJM9nbE8kLkEcReXCYG3pMwOs,47.3869092,8.4897765,4.5,140,"['restaurant', 'food', 'point_of_interest', 'establishment']",2,"Badenerstrasse 647, Zürich",Badenerstrasse 647, Zürich
294,Burgermeister Altstetten,ChIJd3djgR8LkEcRMfTGthMmYeU,47.3881227,8.486487499999999,4.1,333,"['meal_takeaway', 'bar', 'restaurant', 'food', 'point_of_interest', 'establishment']",2,"Altstetterstrasse 146, Zürich",Altstetterstrasse 146, Zürich
295,Turicum,ChIJB9mbEq8JkEcRRXa4_TrDfOY,47.391054,8.4783707,4.2,205,"['restaurant', 'food', 'point_of_interest', 'establishment']",1,"Badenerstrasse 753, Zürich",Badenerstrasse 753, Zürich
296,"Residenz Restaurant, Spirgarten Zürich-Altstetten",ChIJC2eINsYLkEcRgRYK_PYNPFI,47.3876635,8.4845732,4.5,54,"['restaurant', 'food', 'point_of_interest', 'establishment']",0,"Spirgartenstrasse 2, Zürich",Spirgartenstrasse 2, Zürich
297,La Taverna,ChIJKxr17cgLkEcRkLwCY1zg978,47.3872411,8.4876299,4.4,264,"['restaurant', 'food', 'point_of_interest', 'establishment']",2,"Badenerstrasse 663 Beim, Lindenpl., Zürich",Badenerstrasse 663 Beim, Lindenpl.
298,Piratino,ChIJKeoNeLYLkEcRsMFpdBXO9Dg,47.3886642,8.483877999999999,4.5,197,"['restaurant', 'food', 'point_of_interest', 'establishment']",1,"Badenerstrasse 696, Zürich",Badenerstrasse 696, Zürich
299,Krone Altstetten,ChIJt_F0rccLkEcRo5GiBxWiLbU,47.3883956,8.4837332,4.6,452,"['restaurant', 'food', 'point_of_interest', 'establishment']",2,"Badenerstrasse 705, Zürich",Badenerstrasse 705, Zürich
300,Kibar,ChIJA1so2rcLkEcRp3y3Z243bTQ,47.3906785,8.4888881,3.4,79,"['restaurant', 'food', 'point_of_interest', 'establishment']",0,"Hohlstrasse 561, Zürich",Hohlstrasse 561, Zürich
301,BIG Baba's,ChIJo9h_3lELkEcRIlQ3usBNZ2U,47.3878311,8.486848,4.7,93,"['restaurant', 'food', 'point_of_interest', 'establishment']",0,"Altstetterstrasse 147, Zürich",Altstetterstrasse 147, Zürich
302,Spirgarten,ChIJI8kubm0LkEcR_ZqalisnzwU,47.3873936,8.4854155,4.4,110,"['restaurant', 'food', 'point_of_interest', 'establishment']",0,"Lindenpl. 5, Zürich",Lindenpl. 5, Zürich
303,Linde Take Away,ChIJF7VlRk8LkEcRGotAoLw6Z40,47.38931609999999,8.4866025,4.4,38,"['meal_takeaway', 'restaurant', 'food', 'point_of_interest', 'establishment']",0,"Meier-Bosshard-Strasse 4, Zürich",Meier-Bosshard-Strasse 4, Zürich
304,QIRIN - Sushi & Drinks,ChIJKXQTWisLkEcRHf_mf9olgxY,47.3891034,8.4882216,4.6,203,"['restaurant', 'food', 'point_of_interest', 'establishment']",0,"Baslerstrasse 141, Zürich",Baslerstrasse 141, Zürich
305,Memo Bar,ChIJc38LgMgLkEcRiJMc_T2Ph6w,47.3880053,8.4860658,4.4,1053,"['restaurant', 'food', 'point_of_interest', 'establishment']",1,"Badenerstrasse 676, Zürich",Badenerstrasse 676, Zürich
306,Suan Long,ChIJ8RKSsIALkEcRpRrJWxQ5IK8,47.3896194,8.4866222,4.0,186,"['restaurant', 'food', 'point_of_interest', 'establishment']",2,"Altstetterstrasse 124, Zürich",Altstetterstrasse 124, Zürich
307,Peking Garden,ChIJQcDww7cLkEcR84AqgBAkpXM,47.3910803,8.4888724,3.6,835,"['restaurant', 'food', 'point_of_interest', 'establishment']",1,"Hohlstrasse 560, Zürich",Hohlstrasse 560, Zürich
308,Sonne Libanon,ChIJNc_WnYcJkEcRyAJZjZAJ4RQ,47.3820094,8.4838223,4.3,282,"['restaurant', 'food', 'point_of_interest', 'establishment']",2,"Altstetterstrasse 223, Zürich",Altstetterstrasse 223, Zürich
309,scent of bamboo,ChIJyQl7ybcLkEcRRqRVg1hZUxY,47.3908959,8.4891463,3.9,488,"['meal_takeaway', 'restaurant', 'food', 'point_of_interest', 'establishment']",2,"Zürich-Altstetten Bahnhof, Altstetterpl. 12, Zürich",Zürich-Altstetten Bahnhof, Altstetterpl. 12
310,Burger Brothers Swiss,ChIJlcr1nU8LkEcRKaHWQ_9Bfnw,47.3878586,8.4868614,3.9,393,"['restaurant', 'food', 'point_of_interest', 'establishment']",0,"Altstetterstrasse 147, Zürich",Altstetterstrasse 147, Zürich
311,Neu Punkt,ChIJO17ziMgLkEcR3LTTKorLIaY,47.38783160000001,8.4868726,3.7,63,"['restaurant', 'food', 'point_of_interest', 'establishment']",0,"Altstetterstrasse 147, Zürich",Altstetterstrasse 147, Zürich
312,Akaras,ChIJm42zPE8LkEcR_hGhG1rxqCs,47.3906624,8.4887778,4.2,101,"['restaurant', 'food', 'point_of_interest', 'establishment']",0,"Hohlstrasse 561, Zürich",Hohlstrasse 561, Zürich
313,Subway,ChIJ--FIzbcLkEcRjQ5V-e67SuU,47.3909604,8.489965399999999,4.2,681,"['meal_takeaway', 'restaurant', 'food', 'point_of_interest', 'establishment']",2,"Hohlstrasse 552/556, Zürich",Hohlstrasse 552/556, Zürich
314,Kormasutra Indian Restaurant,ChIJoaQ8MKigmkcRxSHXctRBTp8,47.3892403,8.4864792,4.1,951,"['bar', 'restaurant', 'food', 'point_of_interest', 'establishment']",2,"Altstetterstrasse 130, Zürich",Altstetterstrasse 130, Zürich
315,Santa Lucia Altstetten,ChIJhwIxe8gLkEcRL3YTFyaPlrM,47.38878099999999,8.4869679,4.2,1110,"['meal_takeaway', 'restaurant', 'food', 'point_of_interest', 'establishment']",2,"Altstetterstrasse 145, Zürich",Altstetterstrasse 145, Zürich
316,The Coconut,ChIJK9c-y8sLkEcRNiEzd-ceXkk,47.38739899999999,8.493105,4.8,166,"['meal_takeaway', 'restaurant', 'food', 'point_of_interest', 'establishment']",0,"Baslerstrasse 103, Zürich",Baslerstrasse 103, Zürich
318,BUNT,ChIJs1wMarYLkEcRodTXw5iKhzE,47.39203269999999,8.4915934,4.3,369,"['restaurant', 'food', 'point_of_interest', 'establishment']",2,"Vulkanpl. 2, Zürich",Vulkanpl. 2, Zürich
319,KAIMUG Altstetten,ChIJeyVPaPILkEcRVNil4P8hhRU,47.3882886,8.4875256,4.0,21,"['meal_takeaway', 'restaurant', 'food', 'point_of_interest', 'establishment']",2,"Altstetterstrasse 145, Zürich",Altstetterstrasse 145, Zürich
320,Negishi Sushi Bar Altstetten,ChIJLzcjbIuhmkcRhotPUen_yHs,47.3916134,8.488107300000001,4.6,100,"['meal_takeaway', 'restaurant', 'food', 'point_of_interest', 'establishment']",0,"Altstetterpl. 11, Zürich",Altstetterpl. 11, Zürich
321,The Golden Peppercorn,ChIJBeV-nagLkEcRGsbOEhTbelI,47.3889696,8.4887823,4.3,42,"['cafe', 'restaurant', 'food', 'point_of_interest', 'establishment']",0,"Baslerstrasse 137, Zürich",Baslerstrasse 137, Zürich
322,Roter Stein,ChIJcf1dyMcLkEcRLC5wsGkH0SQ,47.3885712,8.484765099999999,4.5,304,"['restaurant', 'food', 'point_of_interest', 'establishment']",2,"Herrligstrasse 39, Zürich",Herrligstrasse 39, Zürich
323,Sir Andrew's,ChIJrwPiVIwLkEcRyyGEmH8i3JE,47.3871212,8.488480899999999,4.3,293,"['restaurant', 'food', 'point_of_interest', 'establishment']",0,"Badenerstrasse 659, Zürich",Badenerstrasse 659, Zürich
324,Taj Mahal,ChIJj3TQ6AkLkEcR02S6f0LLd0k,47.3869463,8.4894686,4.5,194,"['restaurant', 'food', 'point_of_interest', 'establishment']",0,"Badenerstrasse 649, Zürich",Badenerstrasse 649, Zürich
325,Rashim’s Kitchen,ChIJl297oQILkEcR73ZWcOG2B8M,47.3873117,8.487641300000002,5.0,161,"['restaurant', 'food', 'point_of_interest', 'establishment']",0,"Badenerstrasse 663, Zürich",Badenerstrasse 663, Zürich
326,NextShop,ChIJw85x27cLkEcROPuv4DD3Lxw,47.3906717,8.488982499999999,4.3,16,"['restaurant', 'food', 'point_of_interest', 'establishment']",0,"Hohlstrasse 561, Zürich",Hohlstrasse 561, Zürich
327,Imbiss Layalina,ChIJsRulEVALkEcRSiwQ8ZPL66M,47.3915701,8.487939299999999,4.9,17,"['restaurant', 'food', 'point_of_interest', 'establishment']",0,"Bahnhof Altstetten, Zürich",Bahnhof Altstetten, Zürich
329,Buckhuser Bar Bistro Restaurant,ChIJtZfZQ8wLkEcRnM4-GEYOInE,47.38380009999999,8.4927248,4.2,347,"['cafe', 'night_club', 'bar', 'restaurant', 'food', 'point_of_interest', 'establishment']",2,"Buckhauserstrasse 34, Zürich",Buckhauserstrasse 34, Zürich
330,Migros Restaurant,ChIJqSapZ8gLkEcRuiIx7ezjkxU,47.3883843,8.4874986,3.8,398,"['restaurant', 'cafe', 'food', 'point_of_interest', 'establishment']",0,"Altstetterstrasse 145, Zürich",Altstetterstrasse 145, Zürich
331,Antonio Cuccu,ChIJ-cFqi8gLkEcR97YSh4maFj4,47.3866956,8.486708199999999,4.9,45,"['meal_takeaway', 'restaurant', 'food', 'point_of_interest', 'establishment']",0,"Altstetterstrasse 159a, Zürich",Altstetterstrasse 159a, Zürich
333,Rauti,ChIJyUL5QM4LkEcRDuDttzbhGSs,47.3819715,8.488530599999999,4.5,66,"['restaurant', 'food', 'point_of_interest', 'establishment']",1,"Rautistrasse 75, Zürich",Rautistrasse 75, Zürich
335,Bistro ufem Chilehügel,ChIJvW55PcYLkEcRZkQB5CW3HtQ,47.3869012,8.4847631,4.6,53,"['cafe', 'restaurant', 'food', 'point_of_interest', 'establishment']",1,"Pfarrhausstrasse 21, Zürich",Pfarrhausstrasse 21, Zürich
336,SBB Restaurant Westlink,ChIJAasLT7YLkEcRrhirGkQmW9g,47.3916876,8.4910189,4.2,274,"['restaurant', 'food', 'point_of_interest', 'establishment']",1,"Westlink Plaza, Vulkanpl. 11/17, Zürich",Westlink Plaza, Vulkanpl. 11/17
337,momomo,ChIJzWk5XvELkEcRPT3MJ6Gh9eM,47.3889669,8.4886415,4.8,31,"['meal_takeaway', 'restaurant', 'food', 'point_of_interest', 'establishment']",0,"Baslerstrasse 137, Zürich",Baslerstrasse 137, Zürich
339,Samurai VII Altstetten,ChIJe5CAHMkLkEcRPl8CKv3gbYw,47.3870808,8.489030999999999,4.7,459,"['restaurant', 'food', 'point_of_interest', 'establishment']",2,"Ecke, Badenerstrasse 651, Grimselstrasse 2, Zürich",Ecke, Badenerstrasse 651
346,"La Pizza Buona, 8048 Zürich",ChIJxQMyVMULkEcRmdkfC743pFQ,47.38100559999999,8.4836985,4.6,267,"['meal_takeaway', 'meal_delivery', 'restaurant', 'food', 'point_of_interest', 'establishment']",0,"Altstetterstrasse 239, Zürich",Altstetterstrasse 239, Zürich
351,Ruenthai 2,ChIJjVIwessLkEcRZNi76a5rSdU,47.3853691,8.494768100000002,4.4,81,"['restaurant', 'food', 'point_of_interest', 'establishment']",0,"Badenerstrasse 582, Zürich",Badenerstrasse 582, Zürich
353,DAD‘S BISTRO,ChIJ39tyDqILkEcROwdL2ICfKzg,47.4017501,8.4996371,4.5,50,"['restaurant', 'food', 'point_of_interest', 'establishment']",0,"Limmattalstrasse 177, Zürich",Limmattalstrasse 177, Zürich
354,Am Brühlbach,ChIJN4wHc6wLkEcRbu8FJ218DY0,47.4035863,8.498598399999999,4.3,63,"['restaurant', 'food', 'point_of_interest', 'establishment']",0,"Kappenbühlweg 9, Zürich",Kappenbühlweg 9, Zürich
355,Höngger Oriental,ChIJmeBMZLcLkEcRD1wYlKX1dOA,47.4020356,8.4973698,4.8,106,"['restaurant', 'food', 'point_of_interest', 'establishment']",0,"Limmattalstrasse 213, Zürich",Limmattalstrasse 213, Zürich
356,Da Biagio,ChIJZ-f2iq4LkEcR_G1ZXCnifRI,47.40236549999999,8.4954298,4.4,409,"['restaurant', 'food', 'point_of_interest', 'establishment']",2,"Limmattalstrasse 228, Zürich",Limmattalstrasse 228, Zürich
357,persian food,ChIJ7YuFebILkEcRx7sL_caVgk0,47.39920679999999,8.4979272,4.1,160,"['restaurant', 'food', 'point_of_interest', 'establishment']",1,"Am Wasser 135, Zürich",Am Wasser 135, Zürich
358,Pizzeria Rapido,ChIJIZ_BmCoLkEcRGgDJ5K-Qonw,47.40166079999999,8.4989673,4.4,69,"['meal_takeaway', 'restaurant', 'food', 'point_of_interest', 'establishment']",0,"Ackersteinstrasse 205, Zürich",Ackersteinstrasse 205, Zürich
359,MyLatinFood GmbH,ChIJoRk1qYyhmkcRJVh1_-9aioM,47.4035322,8.4965245,4.4,17,"['meal_takeaway', 'restaurant', 'food', 'point_of_interest', 'establishment']",0,"Wieslergasse 36, Zürich",Wieslergasse 36, Zürich
360,Restaurant Hönggerhof,ChIJx6kYAbILkEcRgZF9b5xyLkI,47.3994264,8.495773699999999,4.6,303,"['restaurant', 'food', 'point_of_interest', 'establishment']",2,"Am Wasser 161, Zürich",Am Wasser 161, Zürich
361,Asia Restaurant & Take Away Meedo,ChIJs1VfxfYLkEcRf9HbtUF2Zzc,47.40203229999999,8.4962515,4.5,22,"['meal_takeaway', 'restaurant', 'food', 'point_of_interest', 'establishment']",0,"Limmattalstrasse 225, Zürich",Limmattalstrasse 225, Zürich
362,Kebap Haus Höngg Take Away,ChIJ5bzU5rkLkEcRh1LkL--QAsA,47.401941,8.495994999999999,4.2,676,"['restaurant', 'food', 'point_of_interest', 'establishment']",0,"Limmattalstrasse 227, Zürich",Limmattalstrasse 227, Zürich
363,Maharani Indian,ChIJZzBDD68LkEcRP1saaLYin8o,47.4027156,8.4924811,3.9,283,"['restaurant', 'meal_takeaway', 'bar', 'food', 'point_of_interest', 'establishment']",2,"Limmattalstrasse 252, Zürich",Limmattalstrasse 252, Zürich
364,Hong Kong Take Away,ChIJExiOT6wLkEcReHxGXepCjWU,47.40244999999999,8.4985536,4.7,74,"['restaurant', 'food', 'point_of_interest', 'establishment']",0,"Regensdorferstrasse 5, Zürich",Regensdorferstrasse 5, Zürich
365,Zweifel 1898 Restaurant Weinbeiz,ChIJ8bQ3UlQLkEcRY_Vh_4y2Zyc,47.4037777,8.497525399999999,4.6,50,"['bar', 'restaurant', 'food', 'point_of_interest', 'establishment']",0,"Regensdorferstrasse 20, Zürich",Regensdorferstrasse 20, Zürich
366,"marcello s bistro, Marcel Stutz",ChIJIdioP6wLkEcRkqeRDOqi1vw,47.402963,8.4979373,4.6,79,"['restaurant', 'food', 'point_of_interest', 'establishment']",2,"Regensdorferstrasse 13, Zürich",Regensdorferstrasse 13, Zürich
367,Restaurante Lumar,ChIJAeanzm0LkEcRkqwz1IYOz2E,47.4022059,8.4978325,4.8,12,"['restaurant', 'food', 'point_of_interest', 'establishment']",0,"Limmattalstrasse 206, Zürich",Limmattalstrasse 206, Zürich
368,Werdinsel Restaurant Flussbad,ChIJ1yx9p7oLkEcRj0_43Kd6dlU,47.3994133,8.4893626,4.3,404,"['store', 'restaurant', 'food', 'point_of_interest', 'establishment']",2,"Werdinsel 1A, Zürich",Werdinsel 1A, Zürich
371,Schützenstube Höngg,ChIJr_TDZwcLkEcRde8yKm4vH3I,47.4096828,8.4968078,4.2,142,"['restaurant', 'meal_delivery', 'meal_takeaway', 'food', 'point_of_interest', 'establishment']",1,"Kappenbühlstrasse 80, Zürich",Kappenbühlstrasse 80, Zürich
