,Place Name,Place ID,Latitude,Longitude,Rating,User Ratings Total,Types,Price Level,Vicinity
0,Bärengasse,ChIJXT485wAKkEcRmYgz1gFYLGA,47.37028249999999,8.5387167,4.5,537,"['restaurant', 'food', 'point_of_interest', 'establishment']",4,"Bahnhofstrasse 25, Zürich"
1,Zeughauskeller,ChIJX7fB6wAKkEcRhpTedk8sztg,47.3704208,8.5399742,4.4,9239,"['restaurant', 'food', 'point_of_interest', 'establishment']",2,"Bahnhofstrasse 28A, Zürich"
2,Coop Restaurant Zürich St. Annahof,ChIJgcBmwAYKkEcRnuVcVKVsDYY,47.3730091,8.538126,4.2,1018,"['restaurant', 'food', 'point_of_interest', 'establishment']",2,"Bahnhofstrasse 57, Zürich"
3,Wirtsstube Münsterhöfli,ChIJ1f0ImQAKkEcRDt7eCVz0uV0,47.3700336,8.5403322,4.3,434,"['restaurant', 'food', 'point_of_interest', 'establishment']",0,"Münsterhof 6, Zürich"
4,La Rôtisserie,ChIJA4wBqwAKkEcR1Y1kaDLt-H8,47.3711107,8.5417977,4.5,253,"['restaurant', 'food', 'point_of_interest', 'establishment']",4,"Weinpl. 2, Zürich"
5,Bauernschänke,ChIJiZuJn6mgmkcRaGWEH7EljDw,47.3724348,8.5451847,4.5,450,"['restaurant', 'food', 'point_of_interest', 'establishment']",2,"Rindermarkt 24, Zürich"
6,Sternen Grill + Sternen Grill Restaurant im oberen Stock,ChIJs1urRqugmkcRA1ulmr2Q5wk,47.36732199999999,8.545594,4.4,4147,"['meal_takeaway', 'restaurant', 'food', 'point_of_interest', 'establishment']",2,"Theaterstrasse 22, Zürich"
7,Widder Restaurant,ChIJcX3oLwcKkEcR4jedn_ymCtE,47.3722348,8.5399174,4.4,27,"['restaurant', 'food', 'point_of_interest', 'establishment']",0,"Widdergasse 6, Zürich"
8,Restaurant Sopra,ChIJI58lMdELkEcRAMy_r915lYA,47.3742941,8.5374555,4.0,33,"['restaurant', 'food', 'point_of_interest', 'establishment']",0,"Seidengasse 1, Zürich"
9,Madrid,ChIJVyhQpamgmkcRbttRg83N9a0,47.3732415,8.5446599,4.4,544,"['restaurant', 'food', 'point_of_interest', 'establishment']",2,"Froschaugasse 15, Zürich"
10,Heugümper,ChIJa0sAlQAKkEcRN0KXUTVHiYc,47.3702704,8.5401106,4.7,309,"['restaurant', 'food', 'point_of_interest', 'establishment']",3,"Waaggasse 4, Zürich"
11,Veltlinerkeller,ChIJO1F5rwAKkEcRJ7H4nRupWr4,47.37096469999999,8.5411972,4.7,224,"['restaurant', 'food', 'point_of_interest', 'establishment']",3,"Schlüsselgasse 8, Zürich"
12,Lindenhofkeller Restaurant,ChIJr0M7RwcKkEcR58OcvIT2Gls,47.3724745,8.5407838,4.6,37,"['restaurant', 'food', 'point_of_interest', 'establishment']",0,"Pfalzgasse 4, Zürich"
13,Rosaly's Restaurant & Bar,ChIJy1roQqugmkcRBeCV-hePRf4,47.367419,8.545874,4.5,617,"['bar', 'restaurant', 'food', 'point_of_interest', 'establishment']",2,"Freieckgasse 7, Zürich"
14,Coop Restaurant Zürich Bellevue,ChIJt3cvW6ugmkcR8lFcEpjr-UU,47.3673456,8.5460155,4.2,229,"['restaurant', 'food', 'point_of_interest', 'establishment']",0,"Theaterstrasse 18, Zürich"
15,Union Diner Bellevue,ChIJ22DpdmuhmkcRNp3vx2s7akg,47.3670157,8.5462876,4.3,213,"['restaurant', 'food', 'point_of_interest', 'establishment']",0,"St. Urbangasse 4, Zürich"
16,Korner,ChIJST5PPAIKkEcRK8MasC5mGuA,47.3685926,8.5339415,4.2,1308,"['bar', 'restaurant', 'food', 'point_of_interest', 'establishment']",2,"Gartenstrasse 10, Zürich"
17,Thai Erawan,ChIJ4aq0CgEKkEcRVZyvJrN9edk,47.3694795,8.536637899999999,4.3,108,"['restaurant', 'food', 'point_of_interest', 'establishment']",0,"Bärengasse 25, Zürich"
18,Widder Garden,ChIJhfDAJAcKkEcR59EtQQox4TQ,47.3725174,8.539818,4.5,11,"['restaurant', 'food', 'point_of_interest', 'establishment']",0,"Rennweg 7, Zürich"
19,Tschingg,ChIJG5sTcaugmkcRmKCHqZ3dZN4,47.3682947,8.5460417,4.2,772,"['restaurant', 'food', 'point_of_interest', 'establishment']",1,"Oberdorfstrasse 2, Zürich"
20,Talacker,ChIJze6A9gMKkEcRqICLh3VwWkM,47.371893,8.534785,4.0,109,"['bar', 'restaurant', 'food', 'point_of_interest', 'establishment']",0,"Talacker 41, Zürich"
21,Restaurant Enja,ChIJuUU5wugLkEcR5NhbqJ2qVwY,47.3737258,8.5374298,4.4,118,"['restaurant', 'bar', 'park', 'food', 'point_of_interest', 'establishment']",0,"Sihlstrasse 9, Zürich"
22,AuGust,ChIJeSToOgcKkEcRgiVTUfjVOTg,47.3723276,8.5400013,4.3,757,"['restaurant', 'food', 'point_of_interest', 'establishment']",2,"Rennweg 7, Zürich"
23,Neue Taverne,ChIJSetnU64LkEcR8iIrqCbvkkk,47.3720812,8.540402499999999,4.7,391,"['restaurant', 'food', 'point_of_interest', 'establishment']",3,"Glockengasse 8, Zürich"
24,Bindella,ChIJX4pduwAKkEcRr5_RAWUd104,47.370718,8.540664,4.4,938,"['restaurant', 'food', 'point_of_interest', 'establishment']",4,"In Gassen 6, Zürich"
25,Bodega Espanola,ChIJPfdXKKqgmkcRYb15HXkViwg,47.3712679,8.544127,4.2,1082,"['liquor_store', 'restaurant', 'food', 'store', 'point_of_interest', 'establishment']",2,"Münstergasse 15, Zürich"
26,Trattoria Sempre,ChIJ9zpt266hmkcRMtrazHLMiGE,47.3729903,8.5436294,4.4,519,"['restaurant', 'food', 'point_of_interest', 'establishment']",2,"Niederdorfstrasse 7, Zürich"
27,Noon,ChIJ87r6CqugmkcRVdjd6U7kq9U,47.3686777,8.545457299999999,4.5,222,"['restaurant', 'food', 'point_of_interest', 'establishment']",2,"Oberdorfstrasse 9, Zürich"
28,Glogge Egge,ChIJO6xGoQYKkEcR3L8U0fsGoMw,47.37290489999999,8.5365208,4.3,127,"['bar', 'restaurant', 'food', 'store', 'point_of_interest', 'establishment']",2,"Sihlstrasse 31, Zürich"
29,Saigon,ChIJ4ZzajgQKkEcRkiUUiNl6VyA,47.3730058,8.532774700000001,4.4,1080,"['meal_takeaway', 'restaurant', 'food', 'point_of_interest', 'establishment']",2,"Sihlstrasse 97, Zürich"
30,Dialog,ChIJhbZbLKqgmkcRWjrTuenaQ_Q,47.3708614,8.544713999999999,4.2,232,"['restaurant', 'food', 'point_of_interest', 'establishment']",2,"Münstergasse 4, Zürich"
31,Bianchi,ChIJG7Yh0amgmkcRI7GI0awSb-o,47.37354209999999,8.5429626,4.6,589,"['restaurant', 'food', 'point_of_interest', 'establishment']",3,"Limmatquai 82, Zürich"
32,The Butcher,ChIJMSOk66mgmkcRBaW1ZsvBjd4,47.37249440000001,8.543391399999999,4.2,1680,"['restaurant', 'food', 'point_of_interest', 'establishment']",2,"Stüssihofstatt 15, Zürich"
33,Schipfe 16,ChIJhxLGZQcKkEcR9DiYBQ21czo,47.3730889,8.541802299999999,4.5,511,"['restaurant', 'food', 'point_of_interest', 'establishment']",2,"Schipfe 16, Zürich"
34,Ristorante33,ChIJmxfuZSAJkEcRxeEXoLITs7E,47.3668612,8.5340586,4.4,286,"['bar', 'restaurant', 'food', 'point_of_interest', 'establishment']",2,"Bleicherweg 33, Zürich"
35,Vapiano,ChIJ9-g9ZqugmkcReZ-24XijM5A,47.367774,8.5461457,4.0,2678,"['meal_takeaway', 'restaurant', 'food', 'point_of_interest', 'establishment']",2,"Rämistrasse 8, Zürich"
36,Riithalle,ChIJx_jJswUKkEcRgwywjsQLQug,47.3747135,8.534485600000002,4.1,1426,"['bar', 'restaurant', 'food', 'point_of_interest', 'establishment']",2,"Gessnerallee 8, Zürich"
37,Parkhuus,ChIJH6dzZf8JkEcR-JRsh32V638,47.3667582,8.5359982,4.0,164,"['restaurant', 'food', 'point_of_interest', 'establishment']",0,"Dreikönigstrasse 25, Zürich"
38,Luigia,ChIJ_0YzhycLkEcREC8sx6hleRI,47.3704873,8.5354656,4.1,2115,"['restaurant', 'food', 'point_of_interest', 'establishment']",2,"Talstrasse 61, Zürich"
39,Restaurant Hirschberg,ChIJCyFlHqmgmkcR5jwW8VtbTNQ,47.3735024,8.546693399999999,4.6,120,"['restaurant', 'food', 'point_of_interest', 'establishment']",0,"Seilergraben 9, Zürich"
40,James Joyce,ChIJJzJlsQYKkEcRIVgHjafHIJc,47.372227,8.537009,4.3,612,"['bar', 'restaurant', 'food', 'point_of_interest', 'establishment']",3,"Pelikanstrasse 8, Zürich"
41,LUX Restaurant & Bar,ChIJLeoeJhAJkEcRkbhTuk67LGE,47.3659761,8.5382272,4.4,186,"['restaurant', 'bar', 'food', 'point_of_interest', 'establishment']",0,"Claridenstrasse 5, Zürich"
42,zum Kropf,ChIJ27YcvwAKkEcROpgKdGSEyA4,47.3706353,8.540244099999999,4.4,1029,"['restaurant', 'food', 'point_of_interest', 'establishment']",2,"In Gassen 16, Zürich"
43,delish - la pinseria,ChIJn5CekqmgmkcRmhj7KP7UIUM,47.3719387,8.5435994,4.1,237,"['cafe', 'meal_takeaway', 'restaurant', 'food', 'point_of_interest', 'establishment']",2,"Marktgasse 15, Zürich"
44,Silberkugel,ChIJHXrYsfgJkEcRiQMxi-CKBR8,47.366475,8.5341796,4.4,854,"['restaurant', 'food', 'point_of_interest', 'establishment']",1,"Bleicherweg 33, Zürich"
45,Ornellaia,ChIJhR8PuAYKkEcRoIf_0blKJ7I,47.37245679999999,8.5377064,4.6,298,"['restaurant', 'food', 'point_of_interest', 'establishment']",0,"St. Annagasse 2, Zürich"
46,Carlton,ChIJhW8XMQEKkEcRSC3jvBjpmiM,47.3713386,8.537680500000002,4.4,264,"['restaurant', 'bar', 'food', 'point_of_interest', 'establishment']",3,"Bahnhofstrasse 41, Zürich"
47,Swiss Chuchi Restaurant,ChIJTfaDxqmgmkcRN_HnS0olahk,47.37316389999999,8.543659200000002,4.3,4155,"['restaurant', 'food', 'point_of_interest', 'establishment']",2,"Rosengasse 10, Zürich"
48,Pepito,ChIJBSHpClinmkcRZ0vU2H2FGog,47.36593070000001,8.5467687,3.7,25,"['meal_takeaway', 'restaurant', 'food', 'point_of_interest', 'establishment']",0,"Theaterstrasse 9, Zürich"
49,Louis,ChIJh1OnuKmgmkcRYYAmRzcOGlI,47.3730276,8.5439021,4.2,869,"['restaurant', 'food', 'point_of_interest', 'establishment']",1,"Niederdorfstrasse 10a, Zürich"
50,Osteria Borgo,ChIJ96N--46hmkcR64B4pntji7k,47.3746714,8.5437078,4.3,232,"['restaurant', 'food', 'point_of_interest', 'establishment']",2,"Niederdorfstrasse 33, Zürich"
51,Tao‘s,ChIJL3iOygAKkEcRS543QQANWGU,47.371448,8.5401992,4.2,1058,"['night_club', 'bar', 'restaurant', 'food', 'point_of_interest', 'establishment']",3,"Augustinergasse 3, Zürich"
52,Simon's,ChIJq1eUjIGhmkcR06A-gkmxfDg,47.373386,8.543574999999999,4.5,1341,"['restaurant', 'food', 'point_of_interest', 'establishment']",0,"Niederdorfstrasse 13, Zürich"
53,Restaurant zum Grünen Glas,ChIJnbs3ZamgmkcRqAMSvICAIzU,47.37154,8.545748,4.5,308,"['meal_takeaway', 'restaurant', 'food', 'point_of_interest', 'establishment']",3,"u. Zäune 15, Zürich"
54,Kronenhalle,ChIJxye0aaugmkcRti36D04xmFo,47.36762090000001,8.545813899999999,4.6,1550,"['bar', 'museum', 'restaurant', 'food', 'point_of_interest', 'establishment']",0,"Rämistrasse 4, Zürich"
55,MyVi's,ChIJYRuWmcChmkcRvSomVjHpYOI,47.3746746,8.543599799999999,3.9,145,"['restaurant', 'food', 'point_of_interest', 'establishment']",0,"Schmidgasse 6, Zürich"
56,Kantorei,ChIJgQWJdKmgmkcRifMHdrCyfdk,47.3724339,8.545584999999999,4.4,693,"['restaurant', 'food', 'point_of_interest', 'establishment']",3,"Neumarkt 2, Zürich"
57,Aurora,ChIJ5csO6wYKkEcRGdZYCSVkrVI,47.3732572,8.5380099,4.4,635,"['bar', 'restaurant', 'food', 'point_of_interest', 'establishment']",3,"Bahnhofstrasse 61, Zürich"
58,Papa Joe's,ChIJrXjdVqqgmkcR_pcB-TeQjMc,47.36878,8.54462,3.9,2137,"['night_club', 'bar', 'restaurant', 'food', 'point_of_interest', 'establishment']",2,"Schifflände 18, Zürich"
59,Style Thai,ChIJv6H0IaqgmkcRBbhXSQSTx_k,47.371088,8.543411899999999,4.2,296,"['restaurant', 'food', 'point_of_interest', 'establishment']",0,"Schoffelgasse 3, Zürich"
60,Wolfbach,ChIJ68Be562gmkcRamHPMmoGRAg,47.37029219999999,8.5522824,4.6,187,"['restaurant', 'food', 'point_of_interest', 'establishment']",3,"Wolfbachstrasse 35, Zürich"
61,Blockhus,ChIJ1d2JDaugmkcRvG2iNCdYZ9I,47.3681663,8.545157099999999,4.5,483,"['restaurant', 'food', 'point_of_interest', 'establishment']",2,"Schifflände 4, Zürich"
62,Sternen Grill + Sternen Grill Restaurant im oberen Stock,ChIJs1urRqugmkcRA1ulmr2Q5wk,47.36732199999999,8.545594,4.4,4147,"['meal_takeaway', 'restaurant', 'food', 'point_of_interest', 'establishment']",2,"Theaterstrasse 22, Zürich"
63,Rosaly's Restaurant & Bar,ChIJy1roQqugmkcRBeCV-hePRf4,47.367419,8.545874,4.5,617,"['bar', 'restaurant', 'food', 'point_of_interest', 'establishment']",2,"Freieckgasse 7, Zürich"
64,Frida Seefeld,ChIJ7ckHt8CnmkcRxWfmOeZ2Kxk,47.3628239,8.5491981,5.0,18,"['restaurant', 'food', 'point_of_interest', 'establishment']",0,"Kreuzstrasse 26, Zürich"
65,Coop Restaurant Zürich Bellevue,ChIJt3cvW6ugmkcR8lFcEpjr-UU,47.3673456,8.5460155,4.2,229,"['restaurant', 'food', 'point_of_interest', 'establishment']",0,"Theaterstrasse 18, Zürich"
66,Pepito,ChIJBSHpClinmkcRZ0vU2H2FGog,47.36593070000001,8.5467687,3.7,25,"['meal_takeaway', 'restaurant', 'food', 'point_of_interest', 'establishment']",0,"Theaterstrasse 9, Zürich"
67,Union Diner Bellevue,ChIJ22DpdmuhmkcRNp3vx2s7akg,47.3670157,8.5462876,4.3,213,"['restaurant', 'food', 'point_of_interest', 'establishment']",0,"St. Urbangasse 4, Zürich"
68,Max&Otto,ChIJcwrUclOnmkcRAbMGnaSv5bs,47.3641825,8.5471399,4.3,167,"['restaurant', 'food', 'point_of_interest', 'establishment']",3,"Dufourstrasse 4, Zürich"
69,Tschingg,ChIJG5sTcaugmkcRmKCHqZ3dZN4,47.3682947,8.5460417,4.2,772,"['restaurant', 'food', 'point_of_interest', 'establishment']",1,"Oberdorfstrasse 2, Zürich"
70,tibits Bistro,ChIJGfgyljOnmkcRoOVA1-_tf1I,47.3646921,8.5476147,4.4,452,"['bar', 'meal_takeaway', 'restaurant', 'food', 'store', 'point_of_interest', 'establishment']",2,"Falkenstrasse 12, Zürich"
71,Burgermeister Oberdorf,ChIJ3bEbdKugmkcRW6nMkWm8op8,47.3685171,8.5458839,4.1,983,"['meal_takeaway', 'restaurant', 'food', 'point_of_interest', 'establishment']",2,"Oberdorfstrasse 8, Zürich"
72,Kaimug,ChIJV6POMVOnmkcRu5EGkKFQrtI,47.3657322,8.548359699999999,3.2,65,"['meal_takeaway', 'restaurant', 'food', 'point_of_interest', 'establishment']",2,"Falkenstrasse 21, Zürich"
73,Zum weissen Kreuz,ChIJy8dMU6qgmkcR8nYi9IYTMzA,47.36925069999999,8.5442539,4.6,194,"['restaurant', 'food', 'point_of_interest', 'establishment']",2,"Rössligasse 3, Zürich"
74,Noon,ChIJ87r6CqugmkcRVdjd6U7kq9U,47.3686777,8.545457299999999,4.5,222,"['restaurant', 'food', 'point_of_interest', 'establishment']",2,"Oberdorfstrasse 9, Zürich"
75,Bodega Espanola,ChIJPfdXKKqgmkcRYb15HXkViwg,47.3712679,8.544127,4.2,1082,"['liquor_store', 'restaurant', 'food', 'store', 'point_of_interest', 'establishment']",2,"Münstergasse 15, Zürich"
76,Dialog,ChIJhbZbLKqgmkcRWjrTuenaQ_Q,47.3708614,8.544713999999999,4.2,232,"['restaurant', 'food', 'point_of_interest', 'establishment']",2,"Münstergasse 4, Zürich"
77,Pumpstation,ChIJd949nVOnmkcROghWyVhkibY,47.3636537,8.5463788,4.1,1714,"['restaurant', 'food', 'point_of_interest', 'establishment']",2,"Utoquai 10, Zürich"
78,Vapiano,ChIJ9-g9ZqugmkcReZ-24XijM5A,47.367774,8.5461457,4.0,2678,"['meal_takeaway', 'restaurant', 'food', 'point_of_interest', 'establishment']",2,"Rämistrasse 8, Zürich"
79,Rosengarten,ChIJ_V1-MrKgmkcRZSrFUsvU4CY,47.3697962,8.5563454,4.4,173,"['restaurant', 'food', 'point_of_interest', 'establishment']",2,"Gemeindestrasse 60, Zürich"
80,La Muña,ChIJVQF0FO2nmkcRpUm9vwoAQuk,47.36274299999999,8.547351599999999,4.4,160,"['restaurant', 'point_of_interest', 'food', 'establishment']",0,"Utoquai 45, Zürich"
81,Bohemia,ChIJ44XXJk2nmkcRqAxAtPi-hb0,47.36480570000001,8.554880299999999,4.2,1740,"['restaurant', 'point_of_interest', 'food', 'establishment']",3,"Klosbachstrasse 2, Zürich"
82,Migros Restaurant,ChIJe6LeMFOnmkcR2cOwloDyUaA,47.3654649,8.5479404,3.8,189,"['restaurant', 'cafe', 'point_of_interest', 'food', 'establishment']",1,"Falkenstrasse 19 - 21, Zürich"
83,NZZ am Bellevue,ChIJzfhu58unmkcRspijcnC4m0E,47.36541889999999,8.5475508,3.8,239,"['restaurant', 'point_of_interest', 'food', 'establishment']",3,"Theaterstrasse 3, Zürich"
84,Sazio,ChIJwUqPWFKnmkcRCqB2GSZshPY,47.3635379,8.5495615,4.5,214,"['liquor_store', 'meal_takeaway', 'restaurant', 'point_of_interest', 'food', 'store', 'establishment']",2,"Seefeldstrasse 27, Zürich"
85,Migros Take Away,ChIJA-QMQYOnmkcRW5VAEX3tM6U,47.3654649,8.5479404,0.0,0,"['meal_takeaway', 'bakery', 'restaurant', 'point_of_interest', 'food', 'store', 'establishment']",0,"Falkenstrasse 19 - 21, Zürich"
86,Cheti's,ChIJOa4HNKCgmkcRXh4VYLkhtgc,47.3650279,8.5486234,4.4,204,"['restaurant', 'point_of_interest', 'food', 'establishment']",0,"Seefeldstrasse 7a, Zürich"
87,Nooba Kreuzplatz,ChIJQ4KjL02nmkcR9NB5d1g95Ho,47.365136,8.5545875,4.1,631,"['restaurant', 'point_of_interest', 'food', 'establishment']",2,"Kreuzpl. 5, Zürich"
88,Il Gattopardo,ChIJEXFDrKugmkcRZm-yJY29YhA,47.3692424,8.544426,4.5,77,"['restaurant', 'point_of_interest', 'food', 'establishment']",0,"Rössligasse 7, Zürich"
89,Kronenhalle,ChIJxye0aaugmkcRti36D04xmFo,47.36762090000001,8.545813899999999,4.6,1550,"['museum', 'bar', 'restaurant', 'point_of_interest', 'food', 'establishment']",0,"Rämistrasse 4, Zürich"
90,McDonald’s,ChIJWVobtKygmkcRjf-dHUI1l2c,47.3664546,8.5476469,3.5,1694,"['restaurant', 'point_of_interest', 'food', 'establishment']",2,"Stadelhofen, Gottfried-Keller-Strasse 7, Zürich"
91,Papa Joe's,ChIJrXjdVqqgmkcR_pcB-TeQjMc,47.36878,8.54462,3.9,2137,"['night_club', 'bar', 'restaurant', 'point_of_interest', 'food', 'establishment']",2,"Schifflände 18, Zürich"
92,Outback Lodge,ChIJnTBduaygmkcROGPR79oygdA,47.3669614,8.5477659,4.1,1849,"['restaurant', 'point_of_interest', 'food', 'establishment']",2,"Stadelhoferstrasse 18, Zürich"
93,Style Thai,ChIJv6H0IaqgmkcRBbhXSQSTx_k,47.371088,8.543411899999999,4.2,296,"['restaurant', 'point_of_interest', 'food', 'establishment']",0,"Schoffelgasse 3, Zürich"
94,Weisses Kreuz,ChIJWRqq0qygmkcRwJ3WaiE_PCw,47.36609989999999,8.5487302,4.1,538,"['restaurant', 'point_of_interest', 'food', 'establishment']",2,"Falkenstrasse 27, Zürich"
95,Terrasse Restaurant & Bar,ChIJzxVYF6ugmkcRCDe6d_JS4Gw,47.3678442,8.5445194,4.2,1735,"['night_club', 'bar', 'restaurant', 'point_of_interest', 'food', 'establishment']",3,"Limmatquai 3, Zürich"
96,Commercio,ChIJjQ4qK1OnmkcRRtPQlx6SE2s,47.365959,8.548954799999999,4.2,367,"['restaurant', 'point_of_interest', 'food', 'establishment']",2,"Mühlebachstrasse 2, Zürich"
97,Sorrento,ChIJX7AJIk2nmkcRHsUklcGi2cI,47.3643691,8.554634799999999,4.2,102,"['restaurant', 'point_of_interest', 'food', 'establishment']",2,"Forchstrasse 2, Zürich"
98,Tibits,ChIJJ5DwPVOnmkcRg3Xv8R6KzGo,47.3649874,8.547957199999999,4.4,2593,"['cafe', 'meal_takeaway', 'bar', 'restaurant', 'point_of_interest', 'food', 'establishment']",2,"Seefeldstrasse 2, Zürich"
99,Kunsthaus,ChIJw12aEaygmkcRrgKB3fP1QJQ,47.3706147,8.5477964,3.9,462,"['restaurant', 'point_of_interest', 'food', 'establishment']",2,"Heimpl. 1, Zürich"
100,Ban Song Thai,ChIJH4XGUqqgmkcROia7W1ypLiM,47.3694296,8.544255300000001,4.4,591,"['restaurant', 'food', 'point_of_interest', 'establishment']",2,"Kirchgasse 6, Zürich"
101,Haus zum Rüden,ChIJhdmJF6qgmkcRm5seb1JIvRI,47.3708651,8.5431995,4.6,571,"['restaurant', 'food', 'point_of_interest', 'establishment']",3,"Limmatquai 42, Zürich"
102,kaisin. seefeld,ChIJ-zKBK1mnmkcRv9fWlRoHWwk,47.362725,8.5488983,4.5,63,"['restaurant', 'meal_takeaway', 'food', 'point_of_interest', 'establishment']",0,"Kreuzstrasse 24, Zürich"
103,Weisser Wind,ChIJA9meCqugmkcRGMxn_Wsz5Bc,47.36888889999999,8.5455556,4.4,582,"['restaurant', 'food', 'point_of_interest', 'establishment']",2,"Oberdorfstrasse 20, Zürich"
104,Mère Catherine,ChIJ5e8xJaqgmkcRfyMP8-UfJDI,47.370785,8.543811999999999,4.5,692,"['restaurant', 'bar', 'food', 'point_of_interest', 'establishment']",2,"Nägelihof 3, Zürich"
105,Le Dézaley,ChIJr5rzOqqgmkcRYqfno8OTC1c,47.3706218,8.5438887,4.3,1748,"['restaurant', 'food', 'point_of_interest', 'establishment']",2,"Römergasse 9, Zürich"
106,Silk Lounge & Bar,ChIJiZ63bVOnmkcR56RYz-SGIYA,47.36434209999999,8.547162,4.5,120,"['restaurant', 'food', 'point_of_interest', 'establishment']",0,"Dufourstrasse 2, Zürich"
107,Napulé,ChIJMdVCpxqhmkcR50w52F148K8,47.3677028,8.5465796,4.1,427,"['restaurant', 'food', 'point_of_interest', 'establishment']",2,"Stadelhoferstrasse 42, Zürich"
108,Bernadette,ChIJCT9ggq6nmkcR6e689hxlNCU,47.3650667,8.5463022,4.3,145,"['restaurant', 'food', 'point_of_interest', 'establishment']",3,"Sechseläutenpl. 1, Zürich"
109,Brasserie Schiller,ChIJZ3R0RlOnmkcRDs0_uQnqgnM,47.3653662,8.5472383,3.9,1226,"['restaurant', 'food', 'point_of_interest', 'establishment']",3,"Sechseläutenpl. 10, Zürich"
110,Conti,ChIJkavTbFOnmkcRfPtbdXVAL54,47.3645053,8.5473808,4.5,341,"['restaurant', 'food', 'point_of_interest', 'establishment']",0,"Dufourstrasse 1, Zürich"
111,Royal Panda,ChIJf8zFz6SnmkcRcRY2CMEYhjM,47.3644547,8.5546625,4.8,224,"['meal_takeaway', 'restaurant', 'food', 'point_of_interest', 'establishment']",0,"Eingang bei Zollikerstrasse, Forchstrasse 2, Zürich"
112,Tiffins Asian Kitchen,ChIJh3TsCVKnmkcRPPFzTrImq0M,47.3618925,8.5510282,4.2,632,"['meal_takeaway', 'restaurant', 'food', 'point_of_interest', 'establishment']",2,"Seefeldstrasse 61, Zürich"
113,Negishi,ChIJ0a66IqqgmkcRxtP4EjFt_qc,47.3708426,8.5435412,4.4,884,"['meal_takeaway', 'restaurant', 'food', 'point_of_interest', 'establishment']",2,"Nägelihof 1, Zürich"
114,Weisse Rose,ChIJLTlmcqugmkcRuJC4j8cRKYo,47.3681884,8.5457244,4.8,149,"['bar', 'restaurant', 'food', 'point_of_interest', 'establishment']",2,"Torgasse 9, Zürich"
115,Koko Chicken,ChIJIW46gVyhmkcR3wcw_Vv2DDM,47.3671228,8.5474106,3.6,466,"['restaurant', 'food', 'point_of_interest', 'establishment']",0,"Stadelhoferstrasse 22, Zürich"
116,Santa Lucia,ChIJNVx2q6ygmkcR9KZlxwHN4To,47.3663855,8.5466932,4.2,1233,"['meal_takeaway', 'restaurant', 'food', 'point_of_interest', 'establishment']",2,"Theaterstrasse 10, Zürich"
117,Restaurant Le Cèdre - Bellevue,ChIJG9MPAaugmkcRKnfu7SKdUQk,47.36866999999999,8.5443,4.0,1609,"['restaurant', 'food', 'point_of_interest', 'establishment']",3,"Schifflände 5, Zürich"
118,Ginger Restaurant,ChIJSfGzDlKnmkcR-JYhXFg-h3c,47.361841,8.550616999999999,4.3,488,"['restaurant', 'food', 'point_of_interest', 'establishment']",0,"Seefeldstrasse 62, Zürich"
119,Williams ButchersTable am Bellevue,ChIJdZLE5V6hmkcRZ_jZunmNQGg,47.3682948,8.5451546,4.7,350,"['restaurant', 'food', 'point_of_interest', 'establishment']",0,"Schifflände 6, Zürich"
120,Köchlistube,ChIJn-2yVhkKkEcRgJxDqmr69Zg,47.3732397,8.5238171,4.8,434,"['restaurant', 'food', 'point_of_interest', 'establishment']",2,"Köchlistrasse 6, Zürich"
121,Meze Mediterrane Küche,ChIJky43PssLkEcRpXYy9wjKvKE,47.3770819,8.532382499999999,4.8,273,"['restaurant', 'food', 'point_of_interest', 'establishment']",0,"Freischützgasse 1, Zürich"
122,BUND 39 | 外滩 39 | Taste of Shanghai,ChIJRz-nPk4LkEcRmfUDxGR25Xo,47.3749533,8.5286819,4.5,159,"['restaurant', 'food', 'point_of_interest', 'establishment']",0,"Bäckerstrasse 39, Zürich"
123,Restaurant Zeughaushof,ChIJ-6GvoRoKkEcRg8m8pR4XKi8,47.377901,8.5304401,4.3,215,"['restaurant', 'food', 'point_of_interest', 'establishment']",2,"Kanonengasse 20, Zürich"
124,Schweizer Weinstube,ChIJvTPIABoKkEcRk0x76s3Hsps,47.377522,8.525743,4.5,56,"['restaurant', 'food', 'point_of_interest', 'establishment']",1,"Hohlstrasse 49, Zürich"
125,Brauerhof,ChIJ5S6FeBoKkEcRdowXfsJ5-7g,47.37746509999999,8.5279385,4.6,40,"['restaurant', 'food', 'point_of_interest', 'establishment']",2,"Brauerstrasse 26, Zürich"
126,Summergarte,ChIJxxCxpxoKkEcRqDfwfuwdzK8,47.377167,8.530537299999999,4.6,245,"['restaurant', 'food', 'point_of_interest', 'establishment']",2,"Militärstrasse 49, Zürich"
127,YNOS,ChIJFzE5JxAKkEcR8vEp17S-8io,47.3788864,8.5315408,4.4,684,"['restaurant', 'food', 'point_of_interest', 'establishment']",2,"Europaallee 47, Zürich"
128,Hermanseck,ChIJmWwMFRwKkEcRhD1K23XTJR0,47.3716482,8.5250389,4.7,310,"['restaurant', 'food', 'point_of_interest', 'establishment']",3,"Birmensdorferstrasse 58, Zürich"
129,Yen,ChIJq-nOXgUKkEcRMlM0HwrF8sk,47.376947,8.5325205,4.4,26,"['restaurant', 'food', 'point_of_interest', 'establishment']",0,"Freischützgasse 4, Zürich"
130,Loft Five,ChIJ89b43A8KkEcRO0Xx4rAWdjY,47.3783756,8.5339314,4.1,1749,"['restaurant', 'bar', 'food', 'point_of_interest', 'establishment']",3,"Europaallee 15, Zürich"
131,Schönau,ChIJp4M1XRcKkEcRQEqHt2wpOgs,47.3783754,8.524272700000001,4.5,234,"['restaurant', 'food', 'point_of_interest', 'establishment']",2,"Hohlstrasse 78, Zürich"
132,Werkhof,ChIJx0rEERcKkEcRyQ9yp8Xkn_A,47.3794706,8.5237137,3.9,96,"['restaurant', 'food', 'point_of_interest', 'establishment']",1,"Brauerstrasse 97, Zürich"
133,Fattoush Zürich,ChIJt7nZbLwLkEcRv0Qc6Aw8bkY,47.3715608,8.5254737,4.8,42,"['meal_takeaway', 'restaurant', 'food', 'point_of_interest', 'establishment']",0,"Birmensdorferstrasse 51, Zürich"
134,LÈ Cuisine | 乐厨,ChIJQ8PbCPMLkEcRvOMSxUre01s,47.3739022,8.527999399999999,4.3,155,"['meal_takeaway', 'bar', 'restaurant', 'food', 'point_of_interest', 'establishment']",0,"St. Jakobstrasse 7, Zürich"
135,Việt Street Food,ChIJhXWTOEYLkEcRz0Ja8C-WGAc,47.3758042,8.5361745,4.3,169,"['restaurant', 'food', 'point_of_interest', 'establishment']",0,"Usteristrasse 21, Zürich"
136,Talacker,ChIJze6A9gMKkEcRqICLh3VwWkM,47.371893,8.534785,4.0,109,"['bar', 'restaurant', 'food', 'point_of_interest', 'establishment']",0,"Talacker 41, Zürich"
137,Saigon,ChIJ4ZzajgQKkEcRkiUUiNl6VyA,47.3730058,8.532774700000001,4.4,1080,"['meal_takeaway', 'restaurant', 'food', 'point_of_interest', 'establishment']",2,"Sihlstrasse 97, Zürich"
138,Gartenhof,ChIJFbo-bBwKkEcR6JM4-AYaK5I,47.371914,8.5255849,4.3,535,"['restaurant', 'food', 'point_of_interest', 'establishment']",2,"Gartenhofstrasse 1, Zürich"
139,Nooch Asian Kitchen Badenerstrasse,ChIJq6TV-24LkEcReZUxmzJTFgM,47.3740785,8.5251402,4.5,516,"['restaurant', 'food', 'point_of_interest', 'establishment']",2,"Badenerstrasse 101, Zürich"
140,The Bite,ChIJIaa2eRoKkEcROVddjNVMw8E,47.3772994,8.5278835,4.5,2527,"['restaurant', 'food', 'point_of_interest', 'establishment']",2,"Brauerstrasse 15, Zürich"
141,Gamper,ChIJG568ORcKkEcR4AhLwtFoE5E,47.3791571,8.5250355,4.4,179,"['restaurant', 'food', 'point_of_interest', 'establishment']",0,"Nietengasse 1, Zürich"
142,Knödl,ChIJ18Rai0ILkEcRpQld-_B1yv4,47.3791382,8.524645,4.9,195,"['restaurant', 'food', 'point_of_interest', 'establishment']",2,"Brauerstrasse 78, Zürich"
143,Restaurant Schützengasse,ChIJl2mcrAgKkEcREZACW5Xh4HU,47.3771148,8.5375415,4.4,515,"['restaurant', 'food', 'point_of_interest', 'establishment']",3,"Schützengasse 32, Zürich"
144,Tremondi,ChIJc_nmtYcLkEcRQfLvvBIXNU4,47.3768423,8.5268445,4.7,207,"['restaurant', 'food', 'point_of_interest', 'establishment']",0,"Molkenstrasse 20, Zürich"
145,Coop to go,ChIJyabSSEALkEcRbSih1A5expk,47.37277510000001,8.5368256,4.0,1,"['meal_takeaway', 'restaurant', 'food', 'point_of_interest', 'establishment']",0,"St. Annagasse 11, Zürich"
146,Restaurant Sopra,ChIJI58lMdELkEcRAMy_r915lYA,47.3742941,8.5374555,4.0,33,"['restaurant', 'food', 'point_of_interest', 'establishment']",0,"Seidengasse 1, Zürich"
147,Luigia,ChIJ_0YzhycLkEcREC8sx6hleRI,47.3704873,8.5354656,4.1,2115,"['restaurant', 'food', 'point_of_interest', 'establishment']",2,"Talstrasse 61, Zürich"
148,Bank,ChIJp97uPxoKkEcRz5UjdY3VvsM,47.3764146,8.5264949,4.2,1763,"['cafe', 'bar', 'restaurant', 'food', 'point_of_interest', 'establishment']",3,"Molkenstrasse 15, Zürich"
149,KAIMUG HB Food Station,ChIJIQhOUFMLkEcRP3OtyjQcGLM,47.3782309,8.535991500000002,3.3,81,"['meal_takeaway', 'restaurant', 'food', 'point_of_interest', 'establishment']",2,"Sihlquai, Zürich"
150,Glogge Egge,ChIJO6xGoQYKkEcR3L8U0fsGoMw,47.37290489999999,8.5365208,4.3,127,"['bar', 'store', 'restaurant', 'food', 'point_of_interest', 'establishment']",2,"Sihlstrasse 31, Zürich"
151,Riithalle,ChIJx_jJswUKkEcRgwywjsQLQug,47.3747135,8.534485600000002,4.1,1426,"['bar', 'restaurant', 'food', 'point_of_interest', 'establishment']",2,"Gessnerallee 8, Zürich"
152,Bahnhof Wiedikon,ChIJXXQenh4KkEcRPog_N9xNBvg,47.3708903,8.5234139,4.3,470,"['restaurant', 'food', 'point_of_interest', 'establishment']",1,"Seebahnstrasse 33, Zürich"
153,Emilio,ChIJX0GueBsKkEcR2IPvt_txjoQ,47.3729881,8.5271466,4.6,219,"['restaurant', 'food', 'point_of_interest', 'establishment']",0,"Zweierstrasse 9, Zürich"
154,Migros Restaurant,ChIJicVfxQUKkEcRrbxHS1dFpDw,47.3752322,8.5364528,4.2,779,"['restaurant', 'cafe', 'food', 'point_of_interest', 'establishment']",1,"Löwenstrasse 31-35, Zürich"
155,Bernerhof,ChIJeXm93wQKkEcR9MeSrdfl2LI,47.3745938,8.5321216,4.4,240,"['restaurant', 'food', 'point_of_interest', 'establishment']",3,"Zeughausstrasse 1, Zürich"
156,Thai Takeaway,ChIJ80xkfRsKkEcROnNaABJkZzg,47.3726235,8.5276321,4.5,58,"['restaurant', 'food', 'point_of_interest', 'establishment']",1,"Werdstrasse 62, Zürich"
157,Aargauerhof,ChIJdwnACBoKkEcRlOZe2EYxL2w,47.37736839999999,8.526135499999999,4.3,415,"['restaurant', 'food', 'point_of_interest', 'establishment']",2,"Hohlstrasse 43, Zürich"
158,Werdguet,ChIJx4_tkhwKkEcR-P0skZvkNPA,47.3715485,8.5273839,4.4,190,"['restaurant', 'food', 'point_of_interest', 'establishment']",2,"Morgartenstrasse 30, Zürich"
159,James Joyce,ChIJJzJlsQYKkEcRIVgHjafHIJc,47.372227,8.537009,4.3,612,"['bar', 'restaurant', 'food', 'point_of_interest', 'establishment']",3,"Pelikanstrasse 8, Zürich"
160,BILO BISTRO,ChIJOx36KuILkEcRtj0cnl9EmIE,47.3764349,8.5284023,4.7,37,"['restaurant', 'food', 'point_of_interest', 'establishment']",0,"Ankerstrasse 116, Zürich"
161,Restaurant Trübli Grotto Bar,ChIJQ_H_0rULkEcRvp2nIa21X-4,47.3765399,8.5290286,4.8,86,"['restaurant', 'park', 'bar', 'food', 'point_of_interest', 'establishment']",0,"Zeughausstrasse 67, Zürich"
162,Simply Soup,ChIJ3UgDsBwKkEcRGAxcQl7GCoU,47.3718243,8.529046,4.6,120,"['meal_takeaway', 'restaurant', 'food', 'point_of_interest', 'establishment']",2,"Hallwylstrasse 24, Zürich"
163,Restaurant Enja,ChIJuUU5wugLkEcR5NhbqJ2qVwY,47.3737258,8.5374298,4.4,118,"['restaurant', 'park', 'bar', 'food', 'point_of_interest', 'establishment']",0,"Sihlstrasse 9, Zürich"
164,Gambrinus,ChIJt_XAvhAKkEcRl7n7Rc4lXLg,47.3787295,8.5269941,4.4,238,"['restaurant', 'food', 'point_of_interest', 'establishment']",2,"Langstrasse 103, Zürich"
165,Viet-Thai,ChIJ26B2bRAKkEcRtyARuN37eW0,47.3780746,8.5300262,4.6,256,"['restaurant', 'food', 'point_of_interest', 'establishment']",2,"Kanonengasse 31, Zürich"
166,Don Leone,ChIJ_whoHxsKkEcRYRhSFKK_XQQ,47.374667,8.529062,4.3,1220,"['restaurant', 'food', 'point_of_interest', 'establishment']",2,"Bäckerstrasse 31, Zürich"
167,Italia,ChIJq4p1lBoKkEcRd1lYBV7M5BA,47.3763867,8.5293196,4.4,629,"['restaurant', 'food', 'point_of_interest', 'establishment']",2,"Zeughausstrasse 61, Zürich"
168,Europaallee,ChIJRZDl6Q8KkEcRi0fd0kMMRg8,47.3784348,8.532655400000001,4.1,18,"['restaurant', 'food', 'point_of_interest', 'establishment']",0,"Eisgasse 10, Zürich"
169,Olif,ChIJ6Qe9pxAKkEcRFLTtxjxE--k,47.3776954,8.5263784,4.2,276,"['restaurant', 'food', 'point_of_interest', 'establishment']",0,"Langstrasse 81, Zürich"
170,MAZÌ im Morgarten | Griechisches Mezze Restaurant,ChIJu1EkGaMLkEcRuXOU6Ftr0wA,47.3714862,8.527817299999999,4.5,250,"['restaurant', 'food', 'point_of_interest', 'establishment']",2,"Morgartenstrasse 26, Zürich"
171,Thach,ChIJqZ09QxAKkEcRKP3hQwz-9Rc,47.3786688,8.529901599999999,4.6,681,"['meal_takeaway', 'restaurant', 'food', 'point_of_interest', 'establishment']",1,"Militärstrasse 84, Zürich"
172,Masala,ChIJE_JZQxsKkEcRJF8kgqWKQBI,47.3729909,8.5290306,4.1,481,"['restaurant', 'food', 'point_of_interest', 'establishment']",2,"Stauffacherstrasse 27, Zürich"
173,Neela,ChIJx6iJAxwKkEcRPvKe4kZb57I,47.3779907,8.5297821,4.6,382,"['restaurant', 'food', 'point_of_interest', 'establishment']",2,"Kanonengasse 29, Zürich"
174,Pyramids,ChIJM7APZxwKkEcRbnJqKZiPyrM,47.3715232,8.5261363,4.6,374,"['meal_takeaway', 'restaurant', 'food', 'point_of_interest', 'establishment']",2,"Werdstrasse 99, Zürich"
175,Il Giglio,ChIJJ82AwxwKkEcRCpvgv7UBUNI,47.3709053,8.5283009,4.7,130,"['restaurant', 'food', 'point_of_interest', 'establishment']",3,"Weberstrasse 14, Zürich"
176,Taste of Africa,ChIJ7_esbjYLkEcR_waqByYWAMA,47.3793939,8.5279364,4.7,77,"['restaurant', 'food', 'point_of_interest', 'establishment']",0,"Militärstrasse 117, Zürich"
177,Morgenstern da mario,ChIJlzqKixAKkEcRVRCukofxY5Q,47.3784335,8.5283851,4.2,213,"['restaurant', 'food', 'point_of_interest', 'establishment']",0,"Zwinglistrasse 27, Zürich"
178,Barteca,ChIJ4_BB3qkLkEcRyATIoKDDG_4,47.377651,8.5271258,4.2,142,"['restaurant', 'food', 'point_of_interest', 'establishment']",0,"Brauerstrasse 29, Zürich"
179,Eichhörnli,ChIJhT2dLhcKkEcR4DuYz0hnSpI,47.3797005,8.5256937,4.7,230,"['restaurant', 'food', 'point_of_interest', 'establishment']",2,"Nietengasse 16, Zürich"
180,Hardhof,ChIJiWSc0CQKkEcR9jS9SzslYUE,47.3781918,8.510869999999999,4.5,474,"['restaurant', 'food', 'point_of_interest', 'establishment']",2,"Badenerstrasse 344, Zürich"
181,eNDi Burger,ChIJAaqaoekLkEcRxaX5unPWmBI,47.3774324,8.512745599999999,4.4,518,"['restaurant', 'food', 'point_of_interest', 'establishment']",2,"Zypressenstrasse 49, Zürich"
182,Restaurant Mediacampus,ChIJ9xkREDQKkEcR6U-gL-Phsw0,47.3849406,8.5032239,4.3,101,"['restaurant', 'food', 'point_of_interest', 'establishment']",1,"Baslerstrasse 30, Zürich"
183,SBB Restaurant,ChIJVeC3LDQKkEcRvhSWwQ_7VPI,47.3856419,8.507034599999999,4.5,126,"['restaurant', 'food', 'point_of_interest', 'establishment']",1,"Hohlstrasse 364, Zürich"
184,Pho 50,ChIJxSaEnyQKkEcRlSYolkcqxa8,47.377314,8.5129796,4.5,383,"['restaurant', 'food', 'point_of_interest', 'establishment']",2,"Zypressenstrasse 50, Zürich"
185,Restaurant Hardplatz chez Thomas,ChIJI075jE0LkEcRyfkf2o-tPps,47.3824412,8.514153,4.8,79,"['restaurant', 'food', 'point_of_interest', 'establishment']",0,"Hardpl. 9, Zürich"
186,Crowne Plaza Restaurant,ChIJFwRjPzAKkEcRCDKjc96quKU,47.3803363,8.5062689,3.7,29,"['bar', 'restaurant', 'food', 'point_of_interest', 'establishment']",0,"Badenerstrasse 420, Zürich"
187,DelhiHouse of Bestcurry Indian/Indisches Restaurant,ChIJcUVCoCQKkEcR9FkOaQ02w0Q,47.3774278,8.5132184,4.6,618,"['meal_takeaway', 'restaurant', 'food', 'point_of_interest', 'establishment']",2,"Zypressenstrasse 52, Zürich"
188,Suan Long,ChIJ29D1MCUKkEcR3iiFwsoQzeo,47.378349,8.509527799999999,4.1,98,"['meal_takeaway', 'restaurant', 'food', 'point_of_interest', 'establishment']",2,"Badenerstrasse 355, Zürich"
189,Züri Bistro Albisriederplatz,ChIJy1oG2SQKkEcRGkIqfSqQNTs,47.3779328,8.5107083,4.6,415,"['meal_takeaway', 'restaurant', 'food', 'point_of_interest', 'establishment']",1,"Badenerstrasse 343, Zürich"
190,"Restaurant Hardplatz, Takeawey Pizzeria Etna",ChIJ2z4z9TsKkEcRYr0QS_8CfpU,47.3822147,8.5145201,4.3,112,"['meal_takeaway', 'restaurant', 'food', 'point_of_interest', 'establishment']",1,"Hardpl. 7, Zürich"
191,Ayverdi's,ChIJkXchR5oLkEcRUzLMjTa-UeQ,47.3799972,8.5061166,4.4,2071,"['meal_takeaway', 'restaurant', 'food', 'point_of_interest', 'establishment']",2,"Badenerstrasse 415, Zürich"
192,Iberia Tapas,ChIJf-tA2IgLkEcRfAbrxK6FyzQ,47.3782758,8.5087026,4.7,380,"['bar', 'restaurant', 'food', 'point_of_interest', 'establishment']",2,"Albisriederstrasse 16, Zürich"
193,Al Mouchtar,ChIJK6zEl0wLkEcR2IvO9uXUUWI,47.3826944,8.5002366,4.5,315,"['restaurant', 'food', 'point_of_interest', 'establishment']",1,"Badenerstrasse 541, Zürich"
194,Da Cono,ChIJ548QuDMKkEcRuHxN03faOkU,47.3826408,8.5010656,4.1,653,"['restaurant', 'food', 'point_of_interest', 'establishment']",2,"Badenerstrasse 526, Zürich"
195,New Point,ChIJ8w7wKyUKkEcRF-Zi8pWrAP0,47.3785415,8.5100907,4.0,580,"['restaurant', 'food', 'point_of_interest', 'establishment']",2,"Albisrieder - Platz 5, Zürich"
196,Shilla,ChIJfQ6YhjEKkEcREfgJ8_2UoUc,47.3815037,8.5026285,4.3,702,"['restaurant', 'food', 'point_of_interest', 'establishment']",3,"Badenerstrasse 505, Zürich"
197,Z am Park,ChIJPYxk9CQKkEcRwavC2lu73WU,47.3765377,8.511362499999999,4.2,409,"['cafe', 'bar', 'restaurant', 'food', 'point_of_interest', 'establishment']",2,"Zurlindenstrasse 275, Zürich"
198,Freihof,ChIJh7q9dDMKkEcR99OMkjCBRG4,47.3834263,8.4995149,4.3,89,"['restaurant', 'food', 'point_of_interest', 'establishment']",1,"Badenerstrasse 540, Zürich"
199,Stoller,ChIJays7NCUKkEcRpqieuBdP9Mo,47.3784332,8.5094304,4.3,163,"['restaurant', 'food', 'point_of_interest', 'establishment']",2,"Badenerstrasse 357, Zürich"
200,Platform,ChIJVVVVVUgKkEcRb9D6bgTifsI,47.3859775,8.516149799999999,4.6,49,"['restaurant', 'food', 'point_of_interest', 'establishment']",1,"Maagpl. 1, Zürich"
201,Café Boy,ChIJa_xULiMKkEcREJP_a6KdM7c,47.3778919,8.516025599999999,4.5,348,"['restaurant', 'food', 'point_of_interest', 'establishment']",2,"Kochstrasse 2, Zürich"
202,Singapore,ChIJCdYZozMKkEcRU8vtTeOrA9c,47.38305889999999,8.5003758,4.1,978,"['restaurant', 'food', 'point_of_interest', 'establishment']",2,"Badenerstrasse 530, Zürich"
203,Letzistübli,ChIJzQCorS0KkEcRjtT4Z7vcRkU,47.3773706,8.4986348,4.5,75,"['restaurant', 'food', 'point_of_interest', 'establishment']",1,"Albisriederstrasse 171, Zürich"
204,Ooki Pavillon,ChIJESC-RwwLkEcRPB9vn4piukk,47.3807607,8.5040829,4.5,367,"['restaurant', 'food', 'point_of_interest', 'establishment']",0,"Badenerstrasse 457, Zürich"
205,Five Spice,ChIJAxTMVyIKkEcRavYDFivOuU4,47.37583859999999,8.516393599999999,4.4,339,"['restaurant', 'food', 'point_of_interest', 'establishment']",2,"Sihlfeldstrasse 81, Zürich"
206,Ristorante Da Angela,ChIJqSTmrDUKkEcR0m_hQ4yCtKc,47.3869597,8.5014465,4.7,614,"['restaurant', 'food', 'point_of_interest', 'establishment']",3,"Hohlstrasse 449, Zürich"
207,Taverne Da Angelo,ChIJWQIzYGoMkEcRZj6w_HsxRdQ,47.3761686,8.514820499999999,4.6,402,"['restaurant', 'food', 'point_of_interest', 'establishment']",2,"Badenerstrasse 275, Zürich"
208,Magriplas greek tavern - taste of Perama,ChIJHzbWZLULkEcR6UvXpC4NntE,47.381836,8.5049181,5.0,1,"['restaurant', 'food', 'point_of_interest', 'establishment']",0,"Herdernstrasse 18, Zürich"
209,Azzurro,ChIJkcN4qjUKkEcRi7RoyCJxyMg,47.3870813,8.5009534,4.4,1181,"['restaurant', 'food', 'point_of_interest', 'establishment']",2,"Hohlstrasse 451, Zürich"
210,Little Thai,ChIJFwIhUCIKkEcR6qQid0SILdY,47.3752421,8.5163199,4.4,52,"['restaurant', 'food', 'point_of_interest', 'establishment']",0,"Bertastrasse 3, Zürich"
211,Paprika,ChIJvQ1_4y8KkEcRJyZ6OxdYefM,47.3787264,8.5065026,4.6,67,"['restaurant', 'food', 'point_of_interest', 'establishment']",0,"Brahmsstrasse 22, Zürich"
212,Huusbeiz,ChIJN1HfnSQKkEcRORLDyUnrUfo,47.3774842,8.5125639,4.7,299,"['restaurant', 'food', 'point_of_interest', 'establishment']",2,"Badenerstrasse 310, Zürich"
213,Coop CremAmore Zürich Letzipark,ChIJyRiXxDQKkEcRg5HVeffRU54,47.38631480000001,8.4993863,3.8,13,"['restaurant', 'food', 'point_of_interest', 'establishment']",0,"Baslerstrasse 50, Zürich"
214,Grotto Reale,ChIJ67Fq9CMKkEcRI8LvsQaO5ZI,47.37472450000001,8.512694699999999,4.4,240,"['meal_takeaway', 'restaurant', 'food', 'point_of_interest', 'establishment']",2,"Martastrasse 145, Zürich"
215,mit&ohne kebab | restaurant & take away,ChIJMT22CRQLkEcR3xORxgoKIzs,47.3759474,8.5161718,4.7,1102,"['meal_takeaway', 'restaurant', 'food', 'point_of_interest', 'establishment']",0,"Badenerstrasse 248, Zürich"
216,GEBETA Bar & Restaurant,ChIJ1b7tbMQLkEcR81aGW_c0ge0,47.375128,8.517325,4.8,172,"['bar', 'restaurant', 'food', 'point_of_interest', 'establishment']",0,"Meinrad-Lienert-Strasse 27, Zürich"
217,Tenz,ChIJ720mASMKkEcR5Yjdik7YaFk,47.3761,8.5155519,4.7,759,"['bar', 'restaurant', 'food', 'point_of_interest', 'establishment']",2,"Badenerstrasse 256, Zürich"
218,roots,ChIJM46qPq8LkEcR4fz7gUM0DkE,47.3873329,8.517139499999999,4.5,124,"['restaurant', 'food', 'point_of_interest', 'establishment']",0,"Maschinenstrasse 8, Zürich"
219,Filfl,ChIJ65ZiZoYLkEcRJD9l6pcHHXA,47.3753268,8.5154023,4.5,227,"['restaurant', 'food', 'point_of_interest', 'establishment']",0,"Zentralstrasse 136, Zürich"
220,Oval,ChIJb71EzjMKkEcR5idwS4PmBRw,47.3826276,8.501093599999999,3.9,10,"['restaurant', 'food', 'point_of_interest', 'establishment']",0,"Badenerstrasse 500, Zürich"
221,Flora,ChIJeQYbOrsLkEcRiIG97RpQDT0,47.3785386,8.510137199999999,5.0,4,"['restaurant', 'food', 'point_of_interest', 'establishment']",0,"Badenerstrasse 354, Zürich"
222,LÉGÈRE Bar & Restaurant,ChIJT5Wo0JILkEcRYaLSXGBRYSY,47.3763962,8.514312,4.8,108,"['restaurant', 'food', 'bar', 'point_of_interest', 'establishment']",0,"Badenerstrasse 281, Zürich"
223,K2,ChIJyyaMNz8KkEcRlFksf6xjmCw,47.38648939999999,8.516487699999999,4.3,211,"['restaurant', 'food', 'bar', 'point_of_interest', 'establishment']",2,"Zahnradstrasse 22, Zürich"
224,Delicias latinas,ChIJ9SKs_CIKkEcRKyAi1SzPSWs,47.3762175,8.5153825,4.5,242,"['restaurant', 'food', 'point_of_interest', 'establishment']",0,"Badenerstrasse 260, Zürich"
225,An Chay,ChIJMz_r4pgLkEcRnR5eV6tYcOg,47.3790418,8.5154895,4.6,122,"['restaurant', 'food', 'point_of_interest', 'establishment']",0,"Zypressenstrasse 94, Zürich"
226,Parea,ChIJP1-tAEQLkEcRkIwNcBmFNcE,47.3759016,8.5141794,4.7,233,"['restaurant', 'food', 'point_of_interest', 'establishment']",0,"Zentralstrasse 161, Zürich"
227,Thai Choks,ChIJ74Ao6PMLkEcRLu5uyPIuZK4,47.3759508,8.5153012,4.3,11,"['restaurant', 'food', 'point_of_interest', 'establishment']",0,"Badenerstrasse 263, Zürich"
228,Barranco,ChIJJzyJ4z8LkEcRgeP_DjOW_8Y,47.3792351,8.5157958,4.6,656,"['restaurant', 'food', 'point_of_interest', 'establishment']",3,"Sihlfeldstrasse 141, Zürich"
229,Zur Goldige Guttere,ChIJY4qKAd8LkEcRrq9EOPB2Vms,47.374524,8.5168547,4.6,89,"['restaurant', 'food', 'point_of_interest', 'establishment']",0,"Sihlfeldstrasse 45, Zürich"
230,"""Hummus Tel Aviv"" by Fein & Dein Feinkost",ChIJhXtl2KYLkEcRRXSSEXbQzMw,47.3751153,8.5166173,4.5,54,"['restaurant', 'meal_takeaway', 'grocery_or_supermarket', 'food', 'store', 'point_of_interest', 'establishment']",0,"Sihlfeldstrasse 57, Zürich"
231,Nikos,ChIJueQfDbwLkEcRzP7Ssw_t94M,47.377599,8.498331499999999,4.1,237,"['restaurant', 'food', 'point_of_interest', 'establishment']",0,"Albisriederstrasse 181, Zürich"
232,HITZBERGER Bahnhof Hardbrücke,ChIJvc4yBT8KkEcR-DTBNnClWJk,47.3852918,8.517350600000002,3.3,29,"['meal_takeaway', 'cafe', 'restaurant', 'food', 'point_of_interest', 'establishment']",0,"Hardbrücke 210, Zürich"
233,Lunchgate AG Reservationssystem & Menümarketing für Restaurants,ChIJVd63vjOnmkcRNSbhUzK1h0Y,47.3757583,8.5155558,4.5,57,"['restaurant', 'food', 'point_of_interest', 'establishment']",0,"Badenerstrasse 255, Zürich"
234,Sher-E-Punjab,ChIJHw3CQCIKkEcR4aYKXgJKKCM,47.3745883,8.516836,4.1,195,"['meal_takeaway', 'restaurant', 'food', 'point_of_interest', 'establishment']",0,"Sihlfeldstrasse 45, Zürich"
235,LY'S ASIA,ChIJ43K0JD8KkEcR42DjKop8Mno,47.3863408,8.5170236,3.5,620,"['restaurant', 'food', 'point_of_interest', 'establishment']",2,"Zahnradstrasse 21, Zürich"
236,Restaurant SAHltimbocca,ChIJB2ucOW8KkEcRjF-B0oYG2sI,47.3955232,8.5317042,4.5,80,"['restaurant', 'food', 'point_of_interest', 'establishment']",0,"Lägernstrasse 37, Zürich"
237,Damas,ChIJfZ_6lmkKkEcR1ZOy7r6cjOQ,47.3933296,8.526319200000001,4.5,293,"['meal_delivery', 'restaurant', 'food', 'point_of_interest', 'establishment']",2,"Kyburgstrasse 28, Zürich"
238,FreshOrient,ChIJFwBC4mkKkEcRKceUKn__Wlw,47.393395,8.5242263,4.4,86,"['meal_takeaway', 'restaurant', 'food', 'point_of_interest', 'establishment']",0,"Wipkingerweg 2, Zürich"
239,Troja,ChIJTyQIFWkKkEcR5LP97NhaEXU,47.3936676,8.5286489,4.4,129,"['restaurant', 'food', 'point_of_interest', 'establishment']",0,"Nordstrasse 223, Zürich"
240,Chaima,ChIJp5yuPG8KkEcRjzzUjd86UEE,47.3950967,8.5319054,4.7,112,"['meal_takeaway', 'restaurant', 'food', 'point_of_interest', 'establishment']",2,"Lägernstrasse 32, Zürich"
241,Flying Pizza,ChIJdQ09CGkKkEcRZrlHe3TOrqI,47.3939768,8.5274553,4.2,323,"['restaurant', 'food', 'point_of_interest', 'establishment']",1,"Nordstrasse 245, Zürich"
242,Taj Palace,ChIJfYsbtWsKkEcRxDSTi3PGeSg,47.39094679999999,8.5264546,3.8,261,"['restaurant', 'food', 'point_of_interest', 'establishment']",0,"Hönggerstrasse 25, Zürich"
243,Loi - Vegetarian Bistro,ChIJ5fEDVtsLkEcRTQeIkpGhIFk,47.3892432,8.525327299999999,4.9,41,"['restaurant', 'food', 'point_of_interest', 'establishment']",0,"Limmatstrasse 268/270, Zürich"
244,San Gennaro,ChIJWyFwBOwLkEcRnGcu2aJaGys,47.3915947,8.5250597,4.4,1854,"['restaurant', 'food', 'point_of_interest', 'establishment']",2,"Hönggerstrasse 43, Zürich"
245,Meister Gao,ChIJ6VSr92UKkEcRPMLEA8JNvIY,47.3973029,8.532267599999999,4.4,197,"['restaurant', 'food', 'point_of_interest', 'establishment']",2,"Rötelstrasse 125, Zürich"
246,Tramblu,ChIJO20mGGUKkEcRccWs-mNC0Ek,47.39839629999999,8.5361771,4.7,160,"['restaurant', 'food', 'point_of_interest', 'establishment']",2,"Bucheggstrasse 103, Zürich"
247,Sushi Dining Ototo,ChIJF4QNpW4KkEcRkFt_whIYdAQ,47.3925732,8.5308195,4.6,161,"['restaurant', 'food', 'point_of_interest', 'establishment']",2,"Nordstrasse 199, Zürich"
248,Bebos,ChIJeWWQb14LkEcRC_sOxKLecGw,47.3897261,8.5219734,4.8,1556,"['restaurant', 'food', 'point_of_interest', 'establishment']",2,"Hardstrasse 310, Zürich"
249,Burgermeister Escherwyss,ChIJl_roH6ILkEcRlO0VYUmaVNc,47.3900349,8.5222682,4.3,859,"['meal_takeaway', 'restaurant', 'food', 'point_of_interest', 'establishment']",2,"Hardstrasse 316, Zürich"
250,Nordbrücke,ChIJL1PWR2kKkEcRXo_Cz2BA8EY,47.3933386,8.5294512,4.4,625,"['cafe', 'restaurant', 'food', 'bar', 'point_of_interest', 'establishment']",2,"Dammstrasse 58, Zürich"
251,Am Damm,ChIJfUtYO2sKkEcR5NOiqUzIfXk,47.3883857,8.526479,4.7,21,"['meal_takeaway', 'restaurant', 'food', 'point_of_interest', 'establishment']",0,"Dammweg 6, Zürich"
252,Costa Brava,ChIJHRtC32oKkEcR4smxnTizITU,47.3884769,8.5256554,4.6,297,"['restaurant', 'food', 'point_of_interest', 'establishment']",0,"Limmatstrasse 267, Zürich"
253,Kitchen Republic Zürich-West,ChIJ0SegmxuhmkcRxYpP8ERCUtE,47.3889408,8.5222619,4.4,474,"['meal_takeaway', 'restaurant', 'food', 'point_of_interest', 'establishment']",2,"Heinrichstrasse 239, Zürich"
254,Wurst & Moritz,ChIJFWaUMkAKkEcRsn-E7jkauPE,47.3901512,8.5223141,4.4,1042,"['meal_takeaway', 'restaurant', 'food', 'point_of_interest', 'establishment']",2,"Hardstrasse 318, Zürich"
255,Libanes Take-Away,ChIJi4hHCnEKkEcRQHlzxL7YHcE,47.3929049,8.5393326,4.6,515,"['restaurant', 'food', 'point_of_interest', 'establishment']",1,"Schaffhauserstrasse 74, Zürich"
256,KUMO6,ChIJidJlvWUKkEcRTrtdIFn9jpU,47.3979734,8.533761799999999,4.7,49,"['meal_takeaway', 'restaurant', 'food', 'point_of_interest', 'establishment']",0,"Bucheggpl., Zürich"
257,Tacos Plaza,ChIJi0_p1EEKkEcR7LCLv60d1kM,47.3903024,8.5229505,3.9,454,"['restaurant', 'food', 'point_of_interest', 'establishment']",2,"Limmatstrasse 317, Zürich"
258,Spaghetti Pomodoro,ChIJfUqc00EKkEcRGVd4dZ0E2vU,47.3903283,8.522816299999999,4.0,653,"['restaurant', 'food', 'point_of_interest', 'establishment']",2,"Hardstrasse 324, Zürich"
259,The Butcher,ChIJD3RIGEAKkEcR5sp9CoR-nEo,47.3887106,8.5221901,4.1,936,"['restaurant', 'food', 'point_of_interest', 'establishment']",2,"Heinrichstrasse 239, Zürich"
260,Tacos & Chile,ChIJo-b9gfoLkEcRta2q9Db9vEk,47.3903024,8.5229505,3.8,128,"['restaurant', 'food', 'point_of_interest', 'establishment']",0,"Limmatstrasse 317, Zürich"
261,Limmathof,ChIJ8ZyNTGsKkEcR3EEVNIgXwyw,47.3875324,8.5273518,4.5,245,"['bar', 'restaurant', 'food', 'point_of_interest', 'establishment']",2,"Limmatstrasse 217, Zürich"
262,Don Weber,ChIJ_5GXzWoKkEcR4_b1SxT7cYw,47.3878575,8.5244445,4.3,721,"['bar', 'restaurant', 'food', 'point_of_interest', 'establishment']",2,"Heinrichstrasse 213, Zürich"
263,Don paco,ChIJcUxAAHALkEcRrIfL59C8098,47.3884769,8.5256557,4.9,61,"['liquor_store', 'store', 'restaurant', 'food', 'point_of_interest', 'establishment']",0,"Limmatstrasse 267, Zürich"
264,Nooch Asian Kitchen Steinfels Zürich,ChIJyxjjDEAKkEcRpPZ0Vwvz-as,47.3886254,8.521213399999999,4.3,1461,"['restaurant', 'food', 'point_of_interest', 'establishment']",2,"Heinrichstrasse 267, Zürich"
265,Cucina Milchbuck,ChIJLRgPfXAKkEcRjHJG0BFcOZE,47.395835,8.5399418,4.2,467,"['bar', 'restaurant', 'food', 'point_of_interest', 'establishment']",2,"Schaffhauserstrasse 113, Zürich"
266,Markthalle,ChIJzfXvJGsKkEcRXdxK_k7BqT4,47.3876624,8.5260853,4.3,1898,"['cafe', 'bar', 'store', 'restaurant', 'food', 'point_of_interest', 'establishment']",2,"Limmatstrasse 231, Zürich"
267,Differente,ChIJ-RppE3MKkEcRplBfDTGWmIc,47.3881111,8.5390979,4.6,451,"['restaurant', 'food', 'point_of_interest', 'establishment']",2,"Schaffhauserstrasse 1, Zürich"
268,Edi's,ChIJ4xFjC3MKkEcRYqRroSDM1Nw,47.3886743,8.539310799999999,4.9,213,"['restaurant', 'food', 'point_of_interest', 'establishment']",1,"Schaffhauserstrasse 10, Zürich"
269,Banh Mi,ChIJxZuHJmsKkEcRA_DAbMyzTfc,47.3882916,8.5259895,4.8,157,"['restaurant', 'food', 'point_of_interest', 'establishment']",0,"Limmatstrasse 259, Zürich"
270,Negishi Sushi Bar @ Kitchen Republic Zürich-West,ChIJ9XFNNaMLkEcRFoVRp-zNp2E,47.3889408,8.5222619,3.9,17,"['meal_takeaway', 'restaurant', 'food', 'point_of_interest', 'establishment']",0,"Heinrichstrasse 239, Zürich"
271,Alpenrose,ChIJ5TIRVRMKkEcRxW3YNi-LVps,47.3871525,8.5285003,4.7,441,"['restaurant', 'food', 'point_of_interest', 'establishment']",2,"Fabrikstrasse 12, Zürich"
272,Anna,ChIJlZ_TxAgLkEcREiINkuafAdc,47.39928039999999,8.5400434,4.9,665,"['restaurant', 'food', 'point_of_interest', 'establishment']",0,"Anna-Heer-Strasse 2, Zürich"
273,Moudi's Lecker Cafe,ChIJk6nZanMKkEcR2T6p2MEBW2Q,47.3878822,8.539208100000002,4.5,358,"['restaurant', 'food', 'point_of_interest', 'establishment']",2,"Kronenstrasse 48, Zürich"
274,Indian BBQ,ChIJ6b4RPIwLkEcRB7Z0SXmTiCQ,47.39312899999999,8.520988,4.7,226,"['restaurant', 'food', 'point_of_interest', 'establishment']",2,"Breitensteinstrasse 21, Zürich"
275,Gonzalez,ChIJO8kkgHAKkEcRTNFX6ZuN0as,47.39624269999999,8.5403286,4.6,266,"['restaurant', 'food', 'point_of_interest', 'establishment']",3,"Schaffhauserstrasse 121, Zürich"
276,Tokyo Tapas,ChIJ79FwkOQLkEcRccQUXCEv_SQ,47.3877458,8.5262795,4.8,26,"['bar', 'restaurant', 'food', 'point_of_interest', 'establishment']",0,"Limmatstrasse 231, Zürich"
277,Bibim Shack - Escher Wyss,ChIJ0fN6AngLkEcRVPN_ts3BNPg,47.39029739999999,8.5226473,4.2,188,"['restaurant', 'food', 'point_of_interest', 'establishment']",0,"Hardstrasse 322, Zürich"
278,Osteria Centrale,ChIJeY4ysm4KkEcRRr1vBg7RZHI,47.3928626,8.5304611,4.3,187,"['restaurant', 'food', 'point_of_interest', 'establishment']",2,"Nordstrasse 205, Zürich"
279,4. Akt,ChIJ34KEOUAKkEcRcGOmtvMeyxo,47.3894974,8.5217265,4.0,414,"['bar', 'restaurant', 'food', 'point_of_interest', 'establishment']",2,"Heinrichstrasse 262, Zürich"
280,The Artisan,ChIJRaoZN2kKkEcRYIO7pIknqc8,47.3937454,8.5297925,4.3,900,"['restaurant', 'food', 'point_of_interest', 'establishment']",2,"Nordbrücke 4, Zürich"
281,New Avataar,ChIJx0zlYCYIkEcRSPeTNf1nFUc,47.3938762,8.5311322,4.6,170,"['meal_delivery', 'meal_takeaway', 'restaurant', 'food', 'point_of_interest', 'establishment']",2,"Rütschistrasse 29, Zürich"
282,WAID STATION,ChIJaRuy6VwKkEcRPO7Rieh7U6Q,47.3990041,8.521816099999999,4.8,20,"['meal_takeaway', 'restaurant', 'food', 'point_of_interest', 'establishment']",0,Zürich
283,Ristorante La Casa,ChIJsZjJ6nMKkEcRKdrIRFrLNxQ,47.3902016,8.540065,4.4,318,"['meal_takeaway', 'restaurant', 'food', 'point_of_interest', 'establishment']",2,"Riedtlistrasse 2, Zürich"
284,Ambrosi,ChIJh3JxMBUKkEcRA6x0lUy0pDs,47.3870844,8.5243603,4.3,521,"['cafe', 'bar', 'restaurant', 'food', 'point_of_interest', 'establishment']",2,"Viaduktstrasse 37, Zürich"
285,Modo,ChIJ7x-QwwQLkEcR4FyQabb5pEQ,47.3931475,8.52195,4.7,103,"['cafe', 'meal_takeaway', 'restaurant', 'food', 'point_of_interest', 'establishment']",0,"Breitensteinstrasse 14, Zürich"
286,Thali,ChIJU2Z5yHMKkEcR30xxkEhXLrU,47.3903311,8.5392156,4.3,464,"['meal_delivery', 'meal_takeaway', 'restaurant', 'food', 'point_of_interest', 'establishment']",0,"Schaffhauserstrasse 32, Zürich"
287,Café des Amis,ChIJm8s4jnIKkEcReH2cc_uIteM,47.3886024,8.5360365,4.3,1142,"['cafe', 'restaurant', 'food', 'point_of_interest', 'establishment']",2,"Nordstrasse 88, Zürich"
288,Mesob,ChIJWYb8UyAKkEcR_bLiO0wIq3M,47.3708811,8.5147811,4.6,542,"['meal_takeaway', 'bar', 'restaurant', 'food', 'point_of_interest', 'establishment']",2,"Rotachstrasse 33, Zürich"
289,Ying Cusine Restaurant,ChIJhecDPVsLkEcR4oGhnWgYIQU,47.370562,8.5150259,4.5,8,"['restaurant', 'food', 'point_of_interest', 'establishment']",0,"Birmensdorferstrasse 222, Zürich"
290,Chez Loco,ChIJCYp3WS4JkEcRy-bNCjEoumg,47.3689101,8.5036522,4.9,38,"['restaurant', 'food', 'point_of_interest', 'establishment']",0,"Birmensdorferstrasse 393, Zürich"
291,Victoria Restaurant,ChIJ5wvu0rwLkEcR4-4iERRKEFI,47.3706502,8.5158201,5.0,3,"['restaurant', 'food', 'point_of_interest', 'establishment']",0,"Birmensdorferstrasse 200, Zürich"
292,Liyu Restaurant,ChIJnzVT2kgLkEcRIcuF6yylS4o,47.37049589999999,8.5167456,5.0,85,"['restaurant', 'food', 'point_of_interest', 'establishment']",0,"Birmensdorferstrasse 191, Zürich"
293,Grottino,ChIJm2XJzCEKkEcRb-QlPiaei8c,47.3709585,8.5163891,4.4,439,"['restaurant', 'food', 'point_of_interest', 'establishment']",2,"Aemtlerstrasse 11, Zürich"
294,Richie's Chicken,ChIJKfzmKCALkEcRmqKCGR6ynGc,47.3711204,8.516230199999999,4.6,253,"['meal_takeaway', 'restaurant', 'food', 'point_of_interest', 'establishment']",0,"Aemtlerstrasse 13, Zürich"
295,Pizzeria Bella Napoli,ChIJHf9xGLILkEcRiEtior59bQ8,47.3700701,8.5131081,3.8,43,"['restaurant', 'food', 'point_of_interest', 'establishment']",0,"Birmensdorferstrasse 249, Zürich"
296,Treffpunkt,ChIJFY_LFicKkEcRFycdhUPPJdw,47.3706597,8.509334899999999,3.9,46,"['restaurant', 'food', 'point_of_interest', 'establishment']",0,"Gutstrasse 10, Zürich"
297,Schiwago,ChIJGaZNbccLkEcRGbQjew2cLb4,47.3723102,8.5103824,4.5,77,"['restaurant', 'food', 'point_of_interest', 'establishment']",0,"Bertastrasse 76, Zürich"
298,Meskerem,ChIJfTG69icKkEcRd97fJwLeQbY,47.3695445,8.5056973,4.6,136,"['restaurant', 'food', 'point_of_interest', 'establishment']",2,"Birmensdorferstrasse 364, Zürich"
299,Flash Take-Away,ChIJPU2G8CAKkEcRgDbfl5WwVeY,47.3704918,8.513680299999999,4.2,151,"['meal_takeaway', 'restaurant', 'food', 'point_of_interest', 'establishment']",1,"Kalkbreitestrasse 136, Zürich"
300,Les Délices d'Orient,ChIJe7IgyiEKkEcRKbwbMKKSShM,47.3713778,8.5162661,4.6,196,"['restaurant', 'food', 'point_of_interest', 'establishment']",0,"Aemtlerstrasse 18, Zürich"
301,Migros Take Away,ChIJce7VjzYLkEcRMuvhKta4xaI,47.36994989999999,8.508405999999999,1.0,1,"['meal_takeaway', 'bakery', 'restaurant', 'food', 'point_of_interest', 'store', 'establishment']",0,"Birmensdorferstrasse 320, Zürich"
302,La Côte,ChIJO_apuSEKkEcRvHz6cQrBRms,47.37177990000001,8.5158776,4.3,474,"['restaurant', 'food', 'point_of_interest', 'establishment']",2,"Aemtlerstrasse 26, Zürich"
303,Yokita,ChIJG10-GnkLkEcRIXr08uLMs3E,47.3701443,8.514308399999999,4.8,99,"['meal_takeaway', 'restaurant', 'food', 'point_of_interest', 'establishment']",0,"Friesenbergstrasse 3, Zürich"
304,Shangrila Tibet Restaurant,ChIJrYefRScKkEcRy4BTM4Mkwcs,47.3697476,8.5101022,4.7,301,"['restaurant', 'food', 'point_of_interest', 'establishment']",2,"Birmensdorferstrasse 297, Zürich"
305,Vrenelisgärtli,ChIJPVnzQIgJkEcRbttnKCENYSg,47.36795499999999,8.506059,4.2,90,"['restaurant', 'food', 'point_of_interest', 'establishment']",0,"Wasserschöpfi 71, Zürich"
306,Kulturmarkt,ChIJGTk7pSEKkEcR4m_8glr_cos,47.3718753,8.515461199999999,4.4,148,"['restaurant', 'food', 'point_of_interest', 'establishment']",2,"Aemtlerstrasse 23, Zürich"
307,Kafi Ferdinand,ChIJRaO8SScKkEcR-Q5_d4YXoLk,47.370087,8.5105833,4.5,150,"['cafe', 'restaurant', 'food', 'point_of_interest', 'establishment']",0,"Gutstrasse 2, Zürich"
308,Zapote - Californian Burritos & Salads,ChIJKQHZfPMJkEcRL8THxA8WVLQ,47.3633236,8.5174326,4.4,245,"['restaurant', 'food', 'point_of_interest', 'establishment']",2,"Binzallee 4, Zürich"
309,Xi Muoi,ChIJabObpvILkEcRqWuvgXs_Rjc,47.3705975,8.5137603,4.1,237,"['meal_takeaway', 'restaurant', 'food', 'point_of_interest', 'establishment']",0,"Kalkbreitestrasse 134, Zürich"
310,Jdaburg,ChIJxdYBfyEKkEcRLDylDg-mBKM,47.3733531,8.514837499999999,4.4,192,"['restaurant', 'food', 'point_of_interest', 'establishment']",3,"Gertrudstrasse 44, Zürich"
311,Daizy,ChIJZQlSgYwJkEcRcexXz82dnrg,47.3631413,8.5124634,4.5,764,"['bar', 'restaurant', 'food', 'point_of_interest', 'establishment']",2,"Räffelstrasse 28, Zürich"
312,Tillsamman,ChIJmbER_CEKkEcRR6MkryLupFc,47.3729746,8.5176664,4.8,185,"['cafe', 'restaurant', 'food', 'point_of_interest', 'establishment']",2,"Sihlfeldstrasse 10, Zürich"
313,Scheidegg,ChIJ-z9plh8KkEcRTKlPYZ3XyrA,47.3700155,8.5183985,3.7,62,"['restaurant', 'food', 'point_of_interest', 'establishment']",1,"Kehlhofstrasse 2, Zürich"
314,Dabo Smoothies,ChIJW-eeB44LkEcR8hTnii7jt8U,47.36966779999999,8.510671799999999,4.9,32,"['restaurant', 'food', 'point_of_interest', 'establishment']",0,"Birmensdorferstrasse 285, Zürich"
315,Restaurant Schmiedhof,ChIJK3HICB8KkEcR_9J7KP5eFn8,47.370996,8.519585,4.2,69,"['restaurant', 'food', 'point_of_interest', 'establishment']",0,"Zweierstrasse 136, Zürich"
316,Plüsch,ChIJQ4MBzCEKkEcRzr05Lci8e7E,47.3712981,8.5163383,4.4,465,"['bar', 'cafe', 'restaurant', 'food', 'point_of_interest', 'establishment']",2,"Aemtlerstrasse 16, Zürich"
317,Hopfenau,ChIJJ6lySPQJkEcRT0YbzxYezDA,47.3651312,8.5200101,4.8,279,"['restaurant', 'food', 'point_of_interest', 'establishment']",3,"Hopfenstrasse 19, Zürich"
318,Gertrudhof,ChIJD6iYLyIKkEcRiJbvOViVNXA,47.37390070000001,8.5158151,4.6,1030,"['restaurant', 'food', 'point_of_interest', 'establishment']",2,"Gertrudstrasse 26, Zürich"
319,Bottega Berta,ChIJ_62N5iMKkEcRjqkWkkiMKhc,47.37410149999999,8.5135446,4.5,205,"['restaurant', 'food', 'point_of_interest', 'establishment']",2,"Bertastrasse 36, Zürich"
320,Piratino 2,ChIJSbDV-qoJkEcRBHxJFn6RTfE,47.3646109,8.5105702,3.7,109,"['meal_takeaway', 'restaurant', 'food', 'point_of_interest', 'establishment']",0,"Sieberstrasse 12, Zürich"
321,Pery,ChIJn9FDFx8KkEcR7yxlX7Y0OvI,47.3716997,8.519776799999999,4.6,55,"['bar', 'restaurant', 'food', 'point_of_interest', 'establishment']",0,"Zentralstrasse 36, Zürich"
322,Grotto Reale,ChIJ67Fq9CMKkEcRI8LvsQaO5ZI,47.37472450000001,8.512694699999999,4.4,240,"['meal_takeaway', 'restaurant', 'food', 'point_of_interest', 'establishment']",2,"Martastrasse 145, Zürich"
323,Le Mezzerie de Moudi,ChIJMZH45iMKkEcRkGKzKdLm4fI,47.3740732,8.5135824,4.3,217,"['cafe', 'restaurant', 'food', 'store', 'point_of_interest', 'establishment']",2,"Bertastrasse 36, Zürich"
324,Sher-E-Punjab,ChIJHw3CQCIKkEcR4aYKXgJKKCM,47.3745883,8.516836,4.1,195,"['meal_takeaway', 'restaurant', 'food', 'point_of_interest', 'establishment']",0,"Sihlfeldstrasse 45, Zürich"
325,Piazza,ChIJOTIi0SMKkEcReaJIysQ7lvU,47.373959,8.514556299999999,4.2,262,"['restaurant', 'cafe', 'food', 'point_of_interest', 'establishment']",2,"Idaplatz 2, Zürich"
326,Ploy,ChIJE1IxEvQJkEcR7xC6i0KaQec,47.3639419,8.5201534,4.2,131,"['restaurant', 'food', 'point_of_interest', 'establishment']",2,"Uetlibergstrasse 38, Zürich"
327,LaZoupa,ChIJG0ywly0JkEcRoc6nXZsG4r0,47.3616792,8.516727699999999,5.0,2,"['meal_takeaway', 'restaurant', 'food', 'point_of_interest', 'establishment']",0,"Grubenstrasse 9, Zürich"
328,Gasthof Falken,ChIJ8RG3KLgLkEcRn70lr6f_knw,47.3702346,8.519485999999999,4.3,664,"['restaurant', 'food', 'point_of_interest', 'establishment']",2,"Birmensdorferstrasse 150, Zürich"
329,Da Michelangelo,ChIJK4P6gCEKkEcRbvzSK12r82Q,47.3734206,8.5153257,4.5,748,"['restaurant', 'food', 'point_of_interest', 'establishment']",2,"Gertrudstrasse 37, Zürich"
330,Tamarind Hill,ChIJPTnaTlsJkEcRm7TCtI1MZYA,47.3686136,8.501603099999999,4.3,232,"['meal_takeaway', 'bar', 'restaurant', 'food', 'point_of_interest', 'establishment']",0,"Birmensdorferstrasse 427, Zürich"
331,Payamlino,ChIJJfq3qPMJkEcRJfpxRUjxbEE,47.3615444,8.5178944,4.2,197,"['restaurant', 'food', 'point_of_interest', 'establishment']",1,"Uetlibergstrasse 103, Zürich"
332,Binz & Kunz,ChIJUbTNpYwJkEcRnbNV5y2tPiQ,47.3630471,8.5131972,4.4,844,"['meal_takeaway', 'bar', 'restaurant', 'food', 'point_of_interest', 'establishment']",2,"Räffelstrasse 17, Zürich"
333,Ooki,ChIJWV3DQx8KkEcRKSQrzNprNm0,47.3721245,8.5188125,4.7,1455,"['restaurant', 'food', 'point_of_interest', 'establishment']",2,"Zentralstrasse 53, Zürich"
334,Le Liban Take Away,ChIJ3SRfzo4JkEcR9hxoGeXrMig,47.3701099,8.5142661,4.7,27,"['meal_takeaway', 'restaurant', 'food', 'point_of_interest', 'establishment']",1,"Friesenbergstrasse 3, Zürich"
335,Hot Pot,ChIJQRBlUCAKkEcRb61aHlA0rwQ,47.3705317,8.5150614,4.6,33,"['restaurant', 'food', 'point_of_interest', 'establishment']",0,"Birmensdorferstrasse 222, Zürich"
336,Moon Restaurant,ChIJZ5eWN3gLkEcRUdsD90c91vw,47.3904268,8.4802124,4.6,183,"['restaurant', 'food', 'point_of_interest', 'establishment']",1,"Badenerstrasse 740, Zürich"
337,Musti Grill,ChIJJbOq8MgLkEcRFHVPIkZEvEI,47.3875354,8.488245599999999,4.5,542,"['restaurant', 'food', 'point_of_interest', 'establishment']",2,"Saumackerstrasse 48, Zürich"
338,La Taquería (Altstetten),ChIJ2xL3d8gLkEcRxCMPd7US9W4,47.3886542,8.4862676,4.6,2292,"['restaurant', 'food', 'point_of_interest', 'establishment']",2,"Altstetterstrasse 140a, Zürich"
339,KAIMUG Altstetten,ChIJeyVPaPILkEcRVNil4P8hhRU,47.3882886,8.4875256,4.2,25,"['meal_takeaway', 'restaurant', 'food', 'point_of_interest', 'establishment']",2,"Altstetterstrasse 145, Zürich"
340,Restaurant Casino,ChIJM9nbE8kLkEcReXCYG3pMwOs,47.3869092,8.4897765,4.5,140,"['restaurant', 'food', 'point_of_interest', 'establishment']",2,"Badenerstrasse 647, Zürich"
341,The Golden Peppercorn,ChIJBeV-nagLkEcRGsbOEhTbelI,47.3889696,8.4887823,4.3,42,"['cafe', 'restaurant', 'food', 'point_of_interest', 'establishment']",0,"Baslerstrasse 137, Zürich"
342,Turicum,ChIJB9mbEq8JkEcRRXa4_TrDfOY,47.391054,8.4783707,4.2,206,"['restaurant', 'food', 'point_of_interest', 'establishment']",1,"Badenerstrasse 753, Zürich"
343,Roter Stein,ChIJcf1dyMcLkEcRLC5wsGkH0SQ,47.3885712,8.484765099999999,4.5,303,"['restaurant', 'food', 'point_of_interest', 'establishment']",2,"Herrligstrasse 39, Zürich"
344,Burgermeister Altstetten,ChIJd3djgR8LkEcRMfTGthMmYeU,47.3881227,8.486487499999999,4.1,334,"['bar', 'meal_takeaway', 'restaurant', 'food', 'point_of_interest', 'establishment']",2,"Altstetterstrasse 146, Zürich"
345,"Residenz Restaurant, Spirgarten Zürich-Altstetten",ChIJC2eINsYLkEcRgRYK_PYNPFI,47.3876635,8.4845732,4.5,55,"['restaurant', 'food', 'point_of_interest', 'establishment']",0,"Spirgartenstrasse 2, Zürich"
346,Sir Andrew's,ChIJrwPiVIwLkEcRyyGEmH8i3JE,47.3871212,8.488480899999999,4.3,296,"['restaurant', 'food', 'point_of_interest', 'establishment']",0,"Badenerstrasse 659, Zürich"
347,Taj Mahal,ChIJj3TQ6AkLkEcR02S6f0LLd0k,47.3869463,8.4894686,4.5,194,"['restaurant', 'food', 'point_of_interest', 'establishment']",0,"Badenerstrasse 649, Zürich"
348,La Taverna,ChIJKxr17cgLkEcRkLwCY1zg978,47.3872411,8.4876299,4.4,264,"['restaurant', 'food', 'point_of_interest', 'establishment']",2,"Badenerstrasse 663 Beim, Lindenpl., Zürich"
349,Rashim’s Kitchen,ChIJl297oQILkEcR73ZWcOG2B8M,47.3873117,8.487641300000002,5.0,161,"['restaurant', 'food', 'point_of_interest', 'establishment']",0,"Badenerstrasse 663, Zürich"
350,Piratino,ChIJKeoNeLYLkEcRsMFpdBXO9Dg,47.3886642,8.483877999999999,4.5,198,"['restaurant', 'food', 'point_of_interest', 'establishment']",1,"Badenerstrasse 696, Zürich"
351,Krone Altstetten,ChIJt_F0rccLkEcRo5GiBxWiLbU,47.3883956,8.4837332,4.6,453,"['restaurant', 'food', 'point_of_interest', 'establishment']",2,"Badenerstrasse 705, Zürich"
352,Imbiss Layalina,ChIJsRulEVALkEcRSiwQ8ZPL66M,47.3915701,8.487939299999999,4.9,18,"['restaurant', 'food', 'point_of_interest', 'establishment']",0,"Bahnhof Altstetten, Zürich"
353,Kamla GmbH,ChIJV2LWaJoLkEcRYYSJWeQU68E,47.386995,8.4894628,0.0,0,"['restaurant', 'food', 'point_of_interest', 'establishment']",0,"Badenerstrasse 649, Zürich"
354,Burger Brothers Swiss,ChIJlcr1nU8LkEcRKaHWQ_9Bfnw,47.3878586,8.4868614,3.9,393,"['restaurant', 'food', 'point_of_interest', 'establishment']",0,"Altstetterstrasse 147, Zürich"
355,Migros Restaurant,ChIJqSapZ8gLkEcRuiIx7ezjkxU,47.3883843,8.4874986,3.8,398,"['restaurant', 'cafe', 'food', 'point_of_interest', 'establishment']",0,"Altstetterstrasse 145, Zürich"
356,Kibar,ChIJA1so2rcLkEcRp3y3Z243bTQ,47.3906785,8.4888881,3.4,80,"['restaurant', 'point_of_interest', 'food', 'establishment']",0,"Hohlstrasse 561, Zürich"
357,Neu Punkt,ChIJO17ziMgLkEcR3LTTKorLIaY,47.38783160000001,8.4868726,3.7,63,"['restaurant', 'point_of_interest', 'food', 'establishment']",0,"Altstetterstrasse 147, Zürich"
358,BIG Baba's,ChIJo9h_3lELkEcRIlQ3usBNZ2U,47.3878311,8.486848,4.7,94,"['restaurant', 'point_of_interest', 'food', 'establishment']",0,"Altstetterstrasse 147, Zürich"
359,Spirgarten,ChIJI8kubm0LkEcR_ZqalisnzwU,47.3873936,8.4854155,4.4,110,"['restaurant', 'point_of_interest', 'food', 'establishment']",0,"Lindenpl. 5, Zürich"
360,Antonio Cuccu,ChIJ-cFqi8gLkEcR97YSh4maFj4,47.3866956,8.486708199999999,4.9,45,"['meal_takeaway', 'restaurant', 'point_of_interest', 'food', 'establishment']",0,"Altstetterstrasse 159a, Zürich"
361,Linde Take Away,ChIJF7VlRk8LkEcRGotAoLw6Z40,47.38931609999999,8.4866025,4.4,38,"['meal_takeaway', 'restaurant', 'point_of_interest', 'food', 'establishment']",0,"Meier-Bosshard-Strasse 4, Zürich"
362,QIRIN - Sushi & Drinks,ChIJKXQTWisLkEcRHf_mf9olgxY,47.3891034,8.4882216,4.6,205,"['restaurant', 'point_of_interest', 'food', 'establishment']",0,"Baslerstrasse 141, Zürich"
363,Memo Bar,ChIJc38LgMgLkEcRiJMc_T2Ph6w,47.3880053,8.4860658,4.4,1056,"['restaurant', 'point_of_interest', 'food', 'establishment']",1,"Badenerstrasse 676, Zürich"
364,Rauti,ChIJyUL5QM4LkEcRDuDttzbhGSs,47.3819715,8.488530599999999,4.5,66,"['restaurant', 'point_of_interest', 'food', 'establishment']",1,"Rautistrasse 75, Zürich"
365,Suan Long,ChIJ8RKSsIALkEcRpRrJWxQ5IK8,47.3896194,8.4866222,4.0,186,"['restaurant', 'point_of_interest', 'food', 'establishment']",2,"Altstetterstrasse 124, Zürich"
366,Peking Garden,ChIJQcDww7cLkEcR84AqgBAkpXM,47.3910803,8.4888724,3.6,836,"['restaurant', 'point_of_interest', 'food', 'establishment']",1,"Hohlstrasse 560, Zürich"
367,Sonne Libanon,ChIJNc_WnYcJkEcRyAJZjZAJ4RQ,47.3820094,8.4838223,4.3,283,"['restaurant', 'point_of_interest', 'food', 'establishment']",2,"Altstetterstrasse 223, Zürich"
368,scent of bamboo,ChIJyQl7ybcLkEcRRqRVg1hZUxY,47.3908959,8.4891463,3.9,488,"['meal_takeaway', 'restaurant', 'point_of_interest', 'food', 'establishment']",2,"Zürich-Altstetten Bahnhof, Altstetterpl. 12, Zürich"
369,Bistro ufem Chilehügel,ChIJvW55PcYLkEcRZkQB5CW3HtQ,47.3869012,8.4847631,4.6,54,"['cafe', 'restaurant', 'point_of_interest', 'food', 'establishment']",1,"Pfarrhausstrasse 21, Zürich"
370,SBB Restaurant Westlink,ChIJAasLT7YLkEcRrhirGkQmW9g,47.3916876,8.4910189,4.2,274,"['restaurant', 'point_of_interest', 'food', 'establishment']",1,"Westlink Plaza, Vulkanpl. 11/17, Zürich"
371,momomo,ChIJzWk5XvELkEcRPT3MJ6Gh9eM,47.3889669,8.4886415,4.8,31,"['meal_takeaway', 'restaurant', 'point_of_interest', 'food', 'establishment']",0,"Baslerstrasse 137, Zürich"
372,Akaras,ChIJm42zPE8LkEcR_hGhG1rxqCs,47.3906624,8.4887778,4.2,103,"['restaurant', 'point_of_interest', 'food', 'establishment']",0,"Hohlstrasse 561, Zürich"
373,Subway,ChIJ--FIzbcLkEcRjQ5V-e67SuU,47.3909604,8.489965399999999,4.2,683,"['meal_takeaway', 'restaurant', 'point_of_interest', 'food', 'establishment']",2,"Hohlstrasse 552/556, Zürich"
374,Kormasutra Indian Restaurant,ChIJoaQ8MKigmkcRxSHXctRBTp8,47.3892412,8.486467,4.1,951,"['bar', 'restaurant', 'point_of_interest', 'food', 'establishment']",2,"Altstetterstrasse 130, Zürich"
375,Santa Lucia Altstetten,ChIJhwIxe8gLkEcRL3YTFyaPlrM,47.38878099999999,8.4869679,4.2,1110,"['meal_takeaway', 'restaurant', 'point_of_interest', 'food', 'establishment']",2,"Altstetterstrasse 145, Zürich"
376,Restaurant Triangolo,ChIJETM2oCsLkEcRIQvUiQfzpPg,47.387549,8.488173,0.0,0,"['restaurant', 'food', 'point_of_interest', 'establishment']",0,"Saumackerstrasse 48, Zürich"
377,Samurai VII Altstetten,ChIJe5CAHMkLkEcRPl8CKv3gbYw,47.3870808,8.489030999999999,4.7,460,"['restaurant', 'food', 'point_of_interest', 'establishment']",2,"Ecke, Badenerstrasse 651, Grimselstrasse 2, Zürich"
378,Brudis Grill,ChIJT_SJcbELkEcRICZShjerfQQ,47.3930328,8.489656199999999,0.0,0,"['restaurant', 'food', 'point_of_interest', 'establishment']",0,"Aargauerstrasse 252, Zürich"
379,The Coconut,ChIJK9c-y8sLkEcRNiEzd-ceXkk,47.38739899999999,8.493105,4.8,166,"['meal_takeaway', 'restaurant', 'food', 'point_of_interest', 'establishment']",0,"Baslerstrasse 103, Zürich"
380,Chef Benji,ChIJtdxkrbsLkEcRQmZne_ZTTnQ,47.389698,8.4940801,5.0,2,"['meal_takeaway', 'restaurant', 'food', 'point_of_interest', 'establishment']",0,"Hohlstrasse 508, Zürich"
381,BUNT,ChIJs1wMarYLkEcRodTXw5iKhzE,47.39203269999999,8.4915934,4.3,370,"['restaurant', 'food', 'point_of_interest', 'establishment']",2,"Vulkanpl. 2, Zürich"
382,Arche Bistro,ChIJixeh8PYLkEcRh4rEv9LOVBM,47.3889812,8.4943376,4.9,8,"['restaurant', 'food', 'point_of_interest', 'establishment']",0,"Hohlstrasse 489, Zürich"
383,Negishi Sushi Bar Altstetten,ChIJLzcjbIuhmkcRhotPUen_yHs,47.3916134,8.488107300000001,4.5,101,"['meal_takeaway', 'restaurant', 'food', 'point_of_interest', 'establishment']",0,"Altstetterpl. 11, Zürich"
384,Migros Take Away,ChIJcRmrZcgLkEcRMoDp4n8v6ZE,47.3881717,8.4869196,3.3,6,"['meal_takeaway', 'bakery', 'restaurant', 'food', 'point_of_interest', 'store', 'establishment']",0,"Altstetterstrasse 145, Zürich"
385,UBS Restaurant Key West,ChIJH2MlS0YLkEcR00N5alkFho4,47.3927924,8.4873348,0.0,0,"['restaurant', 'food', 'point_of_interest', 'establishment']",0,"Max-Högger-Strasse 82, Zürich"
386,Ruenthai 2,ChIJjVIwessLkEcRZNi76a5rSdU,47.3853691,8.494768100000002,4.4,81,"['restaurant', 'food', 'point_of_interest', 'establishment']",0,"Badenerstrasse 582, Zürich"
387,Züri Momo,ChIJzTyydEcLkEcRT2cd47E24_o,47.3888531,8.4949674,4.8,24,"['restaurant', 'food', 'point_of_interest', 'establishment']",0,"Hohlstrasse 485, Zürich"
388,Thai Style,ChIJKTVQz-kLkEcR47gjZJ9KjDo,47.3838428,8.4948417,4.6,16,"['restaurant', 'food', 'point_of_interest', 'establishment']",0,"Flurstrasse 55, Zürich"
389,NextShop,ChIJw85x27cLkEcROPuv4DD3Lxw,47.3906717,8.488982499999999,4.3,16,"['restaurant', 'food', 'point_of_interest', 'establishment']",0,"Hohlstrasse 561, Zürich"
390,Masri Streetfood,ChIJAyaoLL0LkEcRdBVK_j08DgU,47.39308519999999,8.489516,5.0,19,"['meal_takeaway', 'restaurant', 'food', 'point_of_interest', 'establishment']",0,"Aargauerstrasse 252, Zürich"
391,Buckhuser Bar Bistro Restaurant,ChIJtZfZQ8wLkEcRnM4-GEYOInE,47.38380009999999,8.4927248,4.2,347,"['night_club', 'bar', 'cafe', 'restaurant', 'food', 'point_of_interest', 'establishment']",2,"Buckhauserstrasse 34, Zürich"
392,CaffèCioccolato,ChIJEU70nMgLkEcRXWJjPt_jKF8,47.3871733,8.4859919,4.2,184,"['cafe', 'restaurant', 'food', 'point_of_interest', 'store', 'establishment']",2,"Lindenpl. 4, Zürich"
393,Restaurant Hönggerhof,ChIJx6kYAbILkEcRgZF9b5xyLkI,47.3994264,8.495773699999999,4.6,303,"['restaurant', 'food', 'point_of_interest', 'establishment']",2,"Am Wasser 161, Zürich"
394,DAD‘S BISTRO,ChIJ39tyDqILkEcROwdL2ICfKzg,47.4017501,8.4996371,4.5,50,"['restaurant', 'food', 'point_of_interest', 'establishment']",0,"Limmattalstrasse 177, Zürich"
395,Maharani Indian,ChIJZzBDD68LkEcRP1saaLYin8o,47.4027156,8.4924811,3.9,283,"['restaurant', 'meal_takeaway', 'bar', 'food', 'point_of_interest', 'establishment']",2,"Limmattalstrasse 252, Zürich"
396,Am Brühlbach,ChIJN4wHc6wLkEcRbu8FJ218DY0,47.4035863,8.498598399999999,4.3,63,"['restaurant', 'food', 'point_of_interest', 'establishment']",0,"Kappenbühlweg 9, Zürich"
397,Höngger Oriental,ChIJmeBMZLcLkEcRD1wYlKX1dOA,47.4020356,8.4973698,4.8,108,"['restaurant', 'food', 'point_of_interest', 'establishment']",0,"Limmattalstrasse 213, Zürich"
398,Zweifel 1898 Restaurant Weinbeiz,ChIJ8bQ3UlQLkEcRY_Vh_4y2Zyc,47.4037777,8.497525399999999,4.6,50,"['bar', 'restaurant', 'food', 'point_of_interest', 'establishment']",0,"Regensdorferstrasse 20, Zürich"
399,"marcello s bistro, Marcel Stutz",ChIJIdioP6wLkEcRkqeRDOqi1vw,47.402963,8.4979373,4.6,79,"['restaurant', 'food', 'point_of_interest', 'establishment']",2,"Regensdorferstrasse 13, Zürich"
400,Da Biagio,ChIJZ-f2iq4LkEcR_G1ZXCnifRI,47.40236549999999,8.4954298,4.4,410,"['restaurant', 'food', 'point_of_interest', 'establishment']",2,"Limmattalstrasse 228, Zürich"
401,persian food,ChIJ7YuFebILkEcRx7sL_caVgk0,47.39920679999999,8.4979272,4.1,160,"['restaurant', 'food', 'point_of_interest', 'establishment']",1,"Am Wasser 135, Zürich"
402,Hong Kong Take Away,ChIJExiOT6wLkEcReHxGXepCjWU,47.40244999999999,8.4985536,4.7,74,"['restaurant', 'food', 'point_of_interest', 'establishment']",0,"Regensdorferstrasse 5, Zürich"
403,Kebap Haus Höngg Take Away,ChIJ5bzU5rkLkEcRh1LkL--QAsA,47.401941,8.495994999999999,4.2,677,"['restaurant', 'food', 'point_of_interest', 'establishment']",0,"Limmattalstrasse 227, Zürich"
404,Restaurante Lumar,ChIJAeanzm0LkEcRkqwz1IYOz2E,47.4022059,8.4978325,4.8,12,"['restaurant', 'food', 'point_of_interest', 'establishment']",0,"Limmattalstrasse 206, Zürich"
405,Pizzeria Rapido,ChIJIZ_BmCoLkEcRGgDJ5K-Qonw,47.40166079999999,8.4989673,4.4,69,"['meal_takeaway', 'restaurant', 'food', 'point_of_interest', 'establishment']",0,"Ackersteinstrasse 205, Zürich"
406,Werdinsel Restaurant Flussbad | Werdinsel GmbH,ChIJ1yx9p7oLkEcRj0_43Kd6dlU,47.3994133,8.4893626,4.3,404,"['restaurant', 'food', 'store', 'point_of_interest', 'establishment']",2,"Werdinsel 1A, Zürich"
407,MyLatinFood GmbH,ChIJoRk1qYyhmkcRJVh1_-9aioM,47.4035322,8.4965245,4.4,17,"['meal_takeaway', 'restaurant', 'food', 'point_of_interest', 'establishment']",0,"Wieslergasse 36, Zürich"
408,Oase Höngg,ChIJi-EQQSELkEcR6pMLvAOuTYE,47.4021737,8.4981301,5.0,6,"['meal_delivery', 'meal_takeaway', 'restaurant', 'food', 'point_of_interest', 'establishment']",0,"Limmattalstrasse 202, Zürich"
409,Asia Restaurant & Take Away Meedo,ChIJs1VfxfYLkEcRf9HbtUF2Zzc,47.40203229999999,8.4962515,4.5,23,"['meal_takeaway', 'restaurant', 'food', 'point_of_interest', 'establishment']",0,"Limmattalstrasse 225, Zürich"
410,Personalrestaurant Wasserversorgung Stadt Zürich,ChIJt57fD28LkEcRtFBLqWfzDEI,47.3976805,8.4963445,0.0,0,"['restaurant', 'food', 'point_of_interest', 'establishment']",0,"Hardhof 9, Zürich"
411,Schützenstube Höngg,ChIJr_TDZwcLkEcRde8yKm4vH3I,47.4096828,8.4968078,4.2,142,"['restaurant', 'meal_delivery', 'meal_takeaway', 'food', 'point_of_interest', 'establishment']",1,"Kappenbühlstrasse 80, Zürich"
412,Bistro Café Träff HPI,ChIJWd9MdFUKkEcRElvjfNkNLZo,47.4082633,8.5079068,4.3,21,"['restaurant', 'food', 'point_of_interest', 'establishment']",2,"Wolfgang-Pauli-Strasse 14, Zürich"
